{"type":"FeatureCollection","features":[{"type":"Feature","id":"","geometry":{"type":"Point","coordinates":[2.196618,41.4378689]},"properties":{"marker-symbol":"fast-food","name":"Brutus","address":".","city":"Barcelona","zipCode":"08030"}},{"type":"Feature","id":"","geometry":{"type":"Point","coordinates":[-3.8080485,40.2877071]},"properties":{"marker-symbol":"fast-food","name":"Brutus","address":"Avda. DE EUROPA, 19","city":"Fuenlabrada","zipCode":"28943"}},{"type":"Feature","id":"","geometry":{"type":"Point","coordinates":[-3.473378,40.4571167]},"properties":{"marker-symbol":"fast-food","name":"Brutus","address":"Avda. de la Constitución, 84","city":"Torrejón de Ardoz","zipCode":"28850"}},{"type":"Feature","id":"","geometry":{"type":"Point","coordinates":[-0.9084265,41.6403143]},"properties":{"marker-symbol":"fast-food","name":"Brutus","address":"Avda. JUAN CARLOS I, 41","city":"Zaragoza","zipCode":"50009"}},{"type":"Feature","id":"","geometry":{"type":"Point","coordinates":[-0.6647702,38.2644742]},"properties":{"marker-symbol":"fast-food","name":"Brutus","address":"Avda. MANUEL MARTINEZ VALERO, 3","city":"Elche/Elx","zipCode":"03290"}},{"type":"Feature","id":"","geometry":{"type":"Point","coordinates":[-4.8416936,37.932051]},"properties":{"marker-symbol":"fast-food","name":"Brutus","address":"C.C. \"\"EL TABLERO\"\"","city":"Córdoba","zipCode":"14012"}},{"type":"Feature","id":"","geometry":{"type":"Point","coordinates":[-4.5037994,36.6684704]},"properties":{"marker-symbol":"fast-food","name":"Brutus","address":"C.C. PLAZA MAYOR","city":"Málaga","zipCode":"29004"}},{"type":"Feature","id":"","geometry":{"type":"Point","coordinates":[-6.4024118,39.5015737]},"properties":{"marker-symbol":"fast-food","name":"Brutus","address":"C.C. Wellness Perú","city":"Cáceres","zipCode":"10001"}},{"type":"Feature","id":"","geometry":{"type":"Point","coordinates":[-0.1018287,39.9383537]},"properties":{"marker-symbol":"fast-food","name":"Brutus","address":"CONSOLACION, 20","city":"Vila-real","zipCode":"12540"}},{"type":"Feature","id":"","geometry":{"type":"Point","coordinates":[-0.1183539,38.918703]},"properties":{"marker-symbol":"fast-food","name":"Brutus","address":"del Mar, 9","city":"Oliva","zipCode":"46780"}},{"type":"Feature","id":"","geometry":{"type":"Point","coordinates":[-0.1226779,38.9193871]},"properties":{"marker-symbol":"fast-food","name":"Brutus","address":"Pescadors, 13 Playa Aigua Blanca","city":"Oliva","zipCode":"46780"}},{"type":"Feature","id":"","geometry":{"type":"Point","coordinates":[2.6604861,39.5771298]},"properties":{"marker-symbol":"fast-food","name":"Brutus","address":"Plaza Aragón, 47","city":"Palma","zipCode":"07006"}},{"type":"Feature","id":"","geometry":{"type":"Point","coordinates":[-0.7742523,38.4774394]},"properties":{"marker-symbol":"fast-food","name":"Brutus","address":"Plaza Paco López Pina, 2","city":"Petrer","zipCode":"03610"}},{"type":"Feature","id":"","geometry":{"type":"Point","coordinates":[-0.8099301,38.2452017]},"properties":{"marker-symbol":"fast-food","name":"Brutus","address":"SANTA MARIA DE LA CABEZA, 4","city":"Crevillent","zipCode":"03000"}},{"type":"Feature","id":"","geometry":{"type":"Point","coordinates":[2.7431421,39.5524289]},"properties":{"marker-symbol":"fast-food","name":"Mc Donald's","address":"AEROP.MALLORCA,MOD.EMBARQUE C.-AIRE","city":"Palma","zipCode":"07611"}},{"type":"Feature","id":"","geometry":{"type":"Point","coordinates":[-3.6403201,40.4369532]},"properties":{"marker-symbol":"fast-food","name":"Mc Donald's","address":"ALCALA, 396","city":"Madrid","zipCode":"28017"}},{"type":"Feature","id":"","geometry":{"type":"Point","coordinates":[-3.7016317,40.4091106]},"properties":{"marker-symbol":"fast-food","name":"Mc Donald's","address":"ATOCHA, 127. HOTEL NACIONAL","city":"Madrid","zipCode":"28012"}},{"type":"Feature","id":"","geometry":{"type":"Point","coordinates":[1.4158518,38.9017856]},"properties":{"marker-symbol":"fast-food","name":"Mc Donald's","address":"AVD. SANT JOSEP, ESQ. AVD.SAN JORGE","city":"Eivissa","zipCode":"07800"}},{"type":"Feature","id":"","geometry":{"type":"Point","coordinates":[-5.8979651,37.4224346]},"properties":{"marker-symbol":"fast-food","name":"Mc Donald's","address":"Avda. ALCALDE LUIS URUEÑA, S/N","city":"Sevilla","zipCode":"41020"}},{"type":"Feature","id":"","geometry":{"type":"Point","coordinates":[-1.6628019,42.8107761]},"properties":{"marker-symbol":"fast-food","name":"Mc Donald's","address":"Avda. BARAÑAIN, 23","city":"Pamplona/Iruña","zipCode":"31008"}},{"type":"Feature","id":"","geometry":{"type":"Point","coordinates":[-4.0388918,43.3451802]},"properties":{"marker-symbol":"fast-food","name":"Mc Donald's","address":"Avda. BILBAO, S/N-PARQ.EMPR.LOS OCH","city":"Torrelavega","zipCode":"39300"}},{"type":"Feature","id":"","geometry":{"type":"Point","coordinates":[-4.7946046,37.9103616]},"properties":{"marker-symbol":"fast-food","name":"Mc Donald's","address":"Avda. BRILLANTE, S/N","city":"Córdoba","zipCode":"14012"}},{"type":"Feature","id":"","geometry":{"type":"Point","coordinates":[2.6535851,41.6136477]},"properties":{"marker-symbol":"fast-food","name":"Mc Donald's","address":"Avda. CAPASPRE, 14","city":"Calella","zipCode":"08370"}},{"type":"Feature","id":"","geometry":{"type":"Point","coordinates":[-16.5525145,28.4089363]},"properties":{"marker-symbol":"fast-food","name":"Mc Donald's","address":"Avda. COLON, 5 BAJO. HOTEL LAS VEGA","city":"Puerto de la Cruz","zipCode":"38400"}},{"type":"Feature","id":"","geometry":{"type":"Point","coordinates":[-3.4656833,40.4587616]},"properties":{"marker-symbol":"fast-food","name":"Mc Donald's","address":"Avda. CONSTITUCION, 108","city":"Torrejón de Ardoz","zipCode":"28850"}},{"type":"Feature","id":"","geometry":{"type":"Point","coordinates":[-0.5281637,38.3019827]},"properties":{"marker-symbol":"fast-food","name":"Mc Donald's","address":"Avda. DE DENIA, 175. CTRA. N-340","city":"Alicante/Alacant","zipCode":"03559"}},{"type":"Feature","id":"","geometry":{"type":"Point","coordinates":[-7.0079623,38.8818086]},"properties":{"marker-symbol":"fast-food","name":"Mc Donald's","address":"Avda. DE ELVAS, S/N","city":"Badajoz","zipCode":"06011"}},{"type":"Feature","id":"","geometry":{"type":"Point","coordinates":[-3.6725374,40.4266193]},"properties":{"marker-symbol":"fast-food","name":"Mc Donald's","address":"Avda. DE LOS ANDES, 46. C. NACIONES","city":"Madrid","zipCode":"28042"}},{"type":"Feature","id":"","geometry":{"type":"Point","coordinates":[-4.8313257,39.9423872]},"properties":{"marker-symbol":"fast-food","name":"Mc Donald's","address":"Avda. DE MADRID, ESQ. PABLO PICASSO","city":"Talavera de la Reina","zipCode":"45600"}},{"type":"Feature","id":"","geometry":{"type":"Point","coordinates":[-0.410559,38.3702172]},"properties":{"marker-symbol":"fast-food","name":"Mc Donald's","address":"Avda. DE NIZA, 12","city":"Alicante/Alacant","zipCode":"03540"}},{"type":"Feature","id":"","geometry":{"type":"Point","coordinates":[-0.0074863,39.9802218]},"properties":{"marker-symbol":"fast-food","name":"Mc Donald's","address":"Avda. DEL MAR, S/N","city":"Castellón de la Plana/Castelló de l","zipCode":"12100"}},{"type":"Feature","id":"","geometry":{"type":"Point","coordinates":[2.1567684,41.3960904]},"properties":{"marker-symbol":"fast-food","name":"Mc Donald's","address":"Avda. DIAGONAL, 466","city":"Barcelona","zipCode":"08006"}},{"type":"Feature","id":"","geometry":{"type":"Point","coordinates":[1.0564192,41.067056]},"properties":{"marker-symbol":"fast-food","name":"Mc Donald's","address":"Avda. DIPUTACION, 8 ESQ. VIÑOLS","city":"Cambrils","zipCode":"43850"}},{"type":"Feature","id":"","geometry":{"type":"Point","coordinates":[-5.9296275,37.2832789]},"properties":{"marker-symbol":"fast-food","name":"Mc Donald's","address":"Avda. DOCTOR FLEMING, S/N","city":"Dos Hermanas","zipCode":"41700"}},{"type":"Feature","id":"","geometry":{"type":"Point","coordinates":[-3.9159481,38.9817116]},"properties":{"marker-symbol":"fast-food","name":"Mc Donald's","address":"Avda. EUROPA,S/N","city":"Ciudad Real","zipCode":"13005"}},{"type":"Feature","id":"","geometry":{"type":"Point","coordinates":[-3.7060248,36.7409631]},"properties":{"marker-symbol":"fast-food","name":"Mc Donald's","address":"Avda. FENICIA, S/N. CTRA. N-340","city":"Almuñécar","zipCode":"18690"}},{"type":"Feature","id":"","geometry":{"type":"Point","coordinates":[-4.4921146,36.6429493]},"properties":{"marker-symbol":"fast-food","name":"Mc Donald's","address":"Avda. FRAGA IRIBARNE, 10","city":"Torremolinos","zipCode":"29620"}},{"type":"Feature","id":"","geometry":{"type":"Point","coordinates":[-16.366709,28.3606171]},"properties":{"marker-symbol":"fast-food","name":"Mc Donald's","address":"Avda. GENERALISIMO, 202","city":"CALETILLA - CANDELARIA","zipCode":"38520"}},{"type":"Feature","id":"","geometry":{"type":"Point","coordinates":[2.8425525,41.700429]},"properties":{"marker-symbol":"fast-food","name":"Mc Donald's","address":"Avda. JUST MARLES, 53","city":"Lloret de Mar","zipCode":"17310"}},{"type":"Feature","id":"","geometry":{"type":"Point","coordinates":[-4.477401,36.7060756]},"properties":{"marker-symbol":"fast-food","name":"Mc Donald's","address":"Avda. LAS AMERICAS ESQ.PSO.LOS TILO","city":"Málaga","zipCode":"29006"}},{"type":"Feature","id":"","geometry":{"type":"Point","coordinates":[-3.7466097,40.3293375]},"properties":{"marker-symbol":"fast-food","name":"Mc Donald's","address":"Avda. LENGUA ESPAOLA, 15","city":"Leganés","zipCode":"28914"}},{"type":"Feature","id":"","geometry":{"type":"Point","coordinates":[-5.1298289,36.4296014]},"properties":{"marker-symbol":"fast-food","name":"Mc Donald's","address":"Avda. LITORAL, S/N","city":"Estepona","zipCode":"29680"}},{"type":"Feature","id":"","geometry":{"type":"Point","coordinates":[-0.1304873,38.5023296]},"properties":{"marker-symbol":"fast-food","name":"Mc Donald's","address":"Avda. MADRID, EDIF.ALMADRABA,LOCAL","city":"Benidorm","zipCode":"03500"}},{"type":"Feature","id":"","geometry":{"type":"Point","coordinates":[1.1173562,41.1582639]},"properties":{"marker-symbol":"fast-food","name":"Mc Donald's","address":"Avda. MARIA FORTUNY, S/N","city":"Reus","zipCode":"43203"}},{"type":"Feature","id":"","geometry":{"type":"Point","coordinates":[-4.4662171,36.7096918]},"properties":{"marker-symbol":"fast-food","name":"Mc Donald's","address":"Avda. MARIA ZAMBRANO, S/N","city":"Málaga","zipCode":"29006"}},{"type":"Feature","id":"","geometry":{"type":"Point","coordinates":[2.1867861,41.4230444]},"properties":{"marker-symbol":"fast-food","name":"Mc Donald's","address":"Avda. MERIDIANA, 348 (HIPERCOR)","city":"Barcelona","zipCode":"08027"}},{"type":"Feature","id":"","geometry":{"type":"Point","coordinates":[-6.9586144,37.2640941]},"properties":{"marker-symbol":"fast-food","name":"Mc Donald's","address":"Avda. MOLINO DE LA VEGA, S/N","city":"Huelva","zipCode":"21002"}},{"type":"Feature","id":"","geometry":{"type":"Point","coordinates":[-3.8275429,40.3524309]},"properties":{"marker-symbol":"fast-food","name":"Mc Donald's","address":"Avda. MOSTOLES, S/N, KM. 16,500","city":"Alcorcón","zipCode":"28931"}},{"type":"Feature","id":"","geometry":{"type":"Point","coordinates":[2.751653,39.5062198]},"properties":{"marker-symbol":"fast-food","name":"Mc Donald's","address":"Avda. NACIONAL, 40","city":"Palma","zipCode":"07600"}},{"type":"Feature","id":"","geometry":{"type":"Point","coordinates":[2.1722595,41.3864208]},"properties":{"marker-symbol":"fast-food","name":"Mc Donald's","address":"Avda. PORTAL DE L'ANGEL, 36","city":"Barcelona","zipCode":"08002"}},{"type":"Feature","id":"","geometry":{"type":"Point","coordinates":[-5.3482648,36.1562701]},"properties":{"marker-symbol":"fast-food","name":"Mc Donald's","address":"Avda. PRINCIPE DE ASTURIAS, S/N","city":"Línea de la Concepción (La)","zipCode":"11300"}},{"type":"Feature","id":"","geometry":{"type":"Point","coordinates":[-3.6103756,40.3785981]},"properties":{"marker-symbol":"fast-food","name":"Mc Donald's","address":"Avda. REAL DE ARGANDA, S/N","city":"Madrid","zipCode":"28031"}},{"type":"Feature","id":"","geometry":{"type":"Point","coordinates":[-6.0018536,37.3778038]},"properties":{"marker-symbol":"fast-food","name":"Mc Donald's","address":"Avda. REPUBLICA ARGENTINA, 25","city":"Sevilla","zipCode":"41011"}},{"type":"Feature","id":"","geometry":{"type":"Point","coordinates":[-3.5305442,36.7423743]},"properties":{"marker-symbol":"fast-food","name":"Mc Donald's","address":"Avda. SALOBREÑA, S/N","city":"Motril","zipCode":"18600"}},{"type":"Feature","id":"","geometry":{"type":"Point","coordinates":[2.9625587,42.2720326]},"properties":{"marker-symbol":"fast-food","name":"Mc Donald's","address":"Avda. Salvador Dalí Domenech 31","city":"Figueres","zipCode":"17600"}},{"type":"Feature","id":"","geometry":{"type":"Point","coordinates":[-8.7759339,42.2094251]},"properties":{"marker-symbol":"fast-food","name":"Mc Donald's","address":"Avda. SAMIL, S/N","city":"Vigo","zipCode":"36212"}},{"type":"Feature","id":"","geometry":{"type":"Point","coordinates":[1.39425,38.8945086]},"properties":{"marker-symbol":"fast-food","name":"Mc Donald's","address":"Avda. SANTA EULALIA, 3","city":"Eivissa","zipCode":"07800"}},{"type":"Feature","id":"","geometry":{"type":"Point","coordinates":[-3.6677095,40.5062832]},"properties":{"marker-symbol":"fast-food","name":"Mc Donald's","address":"Avda. SANTO DOMINGO DE LA CALZADA","city":"Madrid","zipCode":"28050"}},{"type":"Feature","id":"","geometry":{"type":"Point","coordinates":[-15.7116464,27.8327218]},"properties":{"marker-symbol":"fast-food","name":"Mc Donald's","address":"Avda. TOMAS ROCA BOSCH, PARC. C-51","city":"Mogán","zipCode":"35140"}},{"type":"Feature","id":"","geometry":{"type":"Point","coordinates":[-0.5116066,38.3734032]},"properties":{"marker-symbol":"fast-food","name":"Mc Donald's","address":"Avda. UNIVERSIDAD, S/N. P.I. RABASA","city":"Alicante/Alacant","zipCode":"03009"}},{"type":"Feature","id":"","geometry":{"type":"Point","coordinates":[-0.1775187,38.9752225]},"properties":{"marker-symbol":"fast-food","name":"Mc Donald's","address":"BLASCO IBAÑEZ, S/N","city":"Gandia","zipCode":"46700"}},{"type":"Feature","id":"","geometry":{"type":"Point","coordinates":[-6.1739116,40.0015543]},"properties":{"marker-symbol":"fast-food","name":"Mc Donald's","address":"BRAVO MURILLO, 3. ED. CENTRICA","city":"Plasencia","zipCode":"10600"}},{"type":"Feature","id":"","geometry":{"type":"Point","coordinates":[-16.71167,28.1336333]},"properties":{"marker-symbol":"fast-food","name":"Mc Donald's","address":"C.C GRAN SUR COSTA TOVISCAS","city":"Adeje","zipCode":"38670"}},{"type":"Feature","id":"","geometry":{"type":"Point","coordinates":[-2.435696,36.8270874]},"properties":{"marker-symbol":"fast-food","name":"Mc Donald's","address":"C.C. ALCAMPO, LOCAL 78","city":"Almería","zipCode":"04007"}},{"type":"Feature","id":"","geometry":{"type":"Point","coordinates":[2.752193,39.6421275]},"properties":{"marker-symbol":"fast-food","name":"Mc Donald's","address":"C.C. ALCAMPO. AUT.PALMA-INCA, KM. 7","city":"Marratxí","zipCode":"07141"}},{"type":"Feature","id":"","geometry":{"type":"Point","coordinates":[-0.3301342,39.5092569]},"properties":{"marker-symbol":"fast-food","name":"Mc Donald's","address":"C.C. ALCAMPO. CTRA. A-7, KM. 4,5","city":"Alboraya","zipCode":"46128"}},{"type":"Feature","id":"","geometry":{"type":"Point","coordinates":[-3.642048,38.1125918]},"properties":{"marker-symbol":"fast-food","name":"Mc Donald's","address":"C.C. ALCAMPO.AVDA.SAN CRISTOBAL,S/N","city":"Linares","zipCode":"23700"}},{"type":"Feature","id":"","geometry":{"type":"Point","coordinates":[-0.3898719,39.4232324]},"properties":{"marker-symbol":"fast-food","name":"Mc Donald's","address":"C.C. ALFAFAR. ALC. JOSE PUERTES,S/N","city":"Alfafar","zipCode":"46910"}},{"type":"Feature","id":"","geometry":{"type":"Point","coordinates":[-6.0258286,37.3817849]},"properties":{"marker-symbol":"fast-food","name":"Mc Donald's","address":"C.C. ALJARAFE. CTRA. SE-617","city":"Tomares","zipCode":"41940"}},{"type":"Feature","id":"","geometry":{"type":"Point","coordinates":[-15.5320505,27.7741924]},"properties":{"marker-symbol":"fast-food","name":"Mc Donald's","address":"C.C. ANEXO II, LOCAL 20","city":"San Bartolomé de Tirajana","zipCode":"35100"}},{"type":"Feature","id":"","geometry":{"type":"Point","coordinates":[-8.5240432,42.8899255]},"properties":{"marker-symbol":"fast-food","name":"Mc Donald's","address":"C.C. AREA CENTRAL. P.I. FONTIÑES","city":"Santiago de Compostela","zipCode":"15703"}},{"type":"Feature","id":"","geometry":{"type":"Point","coordinates":[-15.4300065,28.1248227]},"properties":{"marker-symbol":"fast-food","name":"Mc Donald's","address":"C.C. ARENA DORADA","city":"Tías","zipCode":"35340"}},{"type":"Feature","id":"","geometry":{"type":"Point","coordinates":[-15.4300065,28.1248227]},"properties":{"marker-symbol":"fast-food","name":"Mc Donald's","address":"C.C. ARENA DORADA. AVDA. LAS PLAYAS","city":"Tías","zipCode":"35340"}},{"type":"Feature","id":"","geometry":{"type":"Point","coordinates":[-2.9825559,43.3341353]},"properties":{"marker-symbol":"fast-food","name":"Mc Donald's","address":"C.C. ARTEA, LOCAL B33-34","city":"Leioa","zipCode":"48940"}},{"type":"Feature","id":"","geometry":{"type":"Point","coordinates":[-7.5301397,42.9997184]},"properties":{"marker-symbol":"fast-food","name":"Mc Donald's","address":"C.C. AS TERMAS, LOCAL 114-115","city":"Lugo","zipCode":"27002"}},{"type":"Feature","id":"","geometry":{"type":"Point","coordinates":[-1.1209121,37.9996146]},"properties":{"marker-symbol":"fast-food","name":"Mc Donald's","address":"C.C. ATALAYAS. MOLINA SEGURA, S/N","city":"Murcia","zipCode":"30007"}},{"type":"Feature","id":"","geometry":{"type":"Point","coordinates":[-15.4448838,27.8491563]},"properties":{"marker-symbol":"fast-food","name":"Mc Donald's","address":"C.C. ATLANTICO INSULAR, 9-45","city":"Santa Lucía de Tirajana","zipCode":"35110"}},{"type":"Feature","id":"","geometry":{"type":"Point","coordinates":[-15.4448838,27.8491563]},"properties":{"marker-symbol":"fast-food","name":"Mc Donald's","address":"C.C. ATLANTICO. AVDA.ATLANTICO, S/N","city":"Santa Lucía de Tirajana","zipCode":"35110"}},{"type":"Feature","id":"","geometry":{"type":"Point","coordinates":[2.0616178,41.4978645]},"properties":{"marker-symbol":"fast-food","name":"Mc Donald's","address":"C.C. AUGUSTA PARC,LOCAL 103","city":"Sant Cugat del Vallès","zipCode":"08174"}},{"type":"Feature","id":"","geometry":{"type":"Point","coordinates":[-1.0298918,41.6664078]},"properties":{"marker-symbol":"fast-food","name":"Mc Donald's","address":"C.C. AUGUSTA, LOCAL B-42","city":"Zaragoza","zipCode":"50011"}},{"type":"Feature","id":"","geometry":{"type":"Point","coordinates":[-3.7803388,40.3581998]},"properties":{"marker-symbol":"fast-food","name":"Mc Donald's","address":"C.C. AVENIDA M-40. AV.MONDRAGON,S/N","city":"Leganés","zipCode":"28917"}},{"type":"Feature","id":"","geometry":{"type":"Point","coordinates":[-5.810334,43.4049326]},"properties":{"marker-symbol":"fast-food","name":"Mc Donald's","address":"C.C. AZABACHE. CTRA. N-630, KM.451","city":"Siero","zipCode":"33420"}},{"type":"Feature","id":"","geometry":{"type":"Point","coordinates":[-6.2216678,36.4744472]},"properties":{"marker-symbol":"fast-food","name":"Mc Donald's","address":"C.C. BAHIA SUR, CLUB LA SALINA","city":"San Fernando","zipCode":"11100"}},{"type":"Feature","id":"","geometry":{"type":"Point","coordinates":[2.1247233,41.5159611]},"properties":{"marker-symbol":"fast-food","name":"Mc Donald's","address":"C.C. BARICENTRO, LOCAL 16","city":"Barberà del Vallès","zipCode":"08210"}},{"type":"Feature","id":"","geometry":{"type":"Point","coordinates":[2.1247233,41.5159611]},"properties":{"marker-symbol":"fast-food","name":"Mc Donald's","address":"C.C. BARICENTRO. PLANTA 3-BARICINES","city":"Barberà del Vallès","zipCode":"08210"}},{"type":"Feature","id":"","geometry":{"type":"Point","coordinates":[2.0032133,41.3031677]},"properties":{"marker-symbol":"fast-food","name":"Mc Donald's","address":"C.C. BARNASUD, LOCAL A-16","city":"Gavà","zipCode":"08850"}},{"type":"Feature","id":"","geometry":{"type":"Point","coordinates":[-2.8833333,43.2333333]},"properties":{"marker-symbol":"fast-food","name":"Mc Donald's","address":"C.C. BILBONDO. AUTOP. SAN SEBASTIAN","city":"Basauri","zipCode":"48970"}},{"type":"Feature","id":"","geometry":{"type":"Point","coordinates":[-0.4613582,39.4650522]},"properties":{"marker-symbol":"fast-food","name":"Mc Donald's","address":"C.C. BONAIRE. LOCAL M-13","city":"Aldaia","zipCode":"46960"}},{"type":"Feature","id":"","geometry":{"type":"Point","coordinates":[2.0518154,41.3979911]},"properties":{"marker-symbol":"fast-food","name":"Mc Donald's","address":"C.C. CAPRABO. LAUREA MIRO, S/N","city":"Sant Feliu de Llobregat","zipCode":"08980"}},{"type":"Feature","id":"","geometry":{"type":"Point","coordinates":[-5.8979651,37.4224346]},"properties":{"marker-symbol":"fast-food","name":"Mc Donald's","address":"C.C. CARREFOUR SAN PABLO, LOCAL 48","city":"Sevilla","zipCode":"41020"}},{"type":"Feature","id":"","geometry":{"type":"Point","coordinates":[2.1699187,41.387917]},"properties":{"marker-symbol":"fast-food","name":"Mc Donald's","address":"C.C. CARREFOUR, CTRA. N-III, KM.644","city":"Cabrera de Mar","zipCode":"08394"}},{"type":"Feature","id":"","geometry":{"type":"Point","coordinates":[-6.3456061,38.9158586]},"properties":{"marker-symbol":"fast-food","name":"Mc Donald's","address":"C.C. CARREFOUR, CTRA. N-V","city":"Mérida","zipCode":"06800"}},{"type":"Feature","id":"","geometry":{"type":"Point","coordinates":[-0.38543,39.4612193]},"properties":{"marker-symbol":"fast-food","name":"Mc Donald's","address":"C.C. CARREFOUR, CTRA.ALBALAT, S/N","city":"Alzira","zipCode":"46007"}},{"type":"Feature","id":"","geometry":{"type":"Point","coordinates":[-6.1354683,36.6873939]},"properties":{"marker-symbol":"fast-food","name":"Mc Donald's","address":"C.C. CARREFOUR, LOCALES 33-34","city":"Jerez de la Frontera","zipCode":"11402"}},{"type":"Feature","id":"","geometry":{"type":"Point","coordinates":[-6.0343891,37.3854632]},"properties":{"marker-symbol":"fast-food","name":"Mc Donald's","address":"C.C. CARREFOUR,AUTOVIA A-49","city":"Camas","zipCode":"41900"}},{"type":"Feature","id":"","geometry":{"type":"Point","coordinates":[-5.5459787,42.5785355]},"properties":{"marker-symbol":"fast-food","name":"Mc Donald's","address":"C.C. CARREFOUR. ALC. MIGUEL CASTAÑO","city":"León","zipCode":"24005"}},{"type":"Feature","id":"","geometry":{"type":"Point","coordinates":[2.1699187,41.387917]},"properties":{"marker-symbol":"fast-food","name":"Mc Donald's","address":"C.C. CARREFOUR. AUT. CASTELDEFELLS","city":"Prat de Llobregat (El)","zipCode":"08820"}},{"type":"Feature","id":"","geometry":{"type":"Point","coordinates":[-0.3898719,39.4232324]},"properties":{"marker-symbol":"fast-food","name":"Mc Donald's","address":"C.C. CARREFOUR. AVDA. ALBUFERA, S/N","city":"Alfafar","zipCode":"46910"}},{"type":"Feature","id":"","geometry":{"type":"Point","coordinates":[-1.0251068,37.5863117]},"properties":{"marker-symbol":"fast-food","name":"Mc Donald's","address":"C.C. CARREFOUR. AVDA. CANTON, S/N","city":"Cartagena","zipCode":"30205"}},{"type":"Feature","id":"","geometry":{"type":"Point","coordinates":[2.2212071,41.4223872]},"properties":{"marker-symbol":"fast-food","name":"Mc Donald's","address":"C.C. CARREFOUR. AVDA. PLAYA, S/N","city":"Sant Adrià de Besòs","zipCode":"08930"}},{"type":"Feature","id":"","geometry":{"type":"Point","coordinates":[-3.609117,37.1594892]},"properties":{"marker-symbol":"fast-food","name":"Mc Donald's","address":"C.C. CARREFOUR. CTRA. ARMILLA, S/N","city":"Granada","zipCode":"18006"}},{"type":"Feature","id":"","geometry":{"type":"Point","coordinates":[2.0126276,41.538698]},"properties":{"marker-symbol":"fast-food","name":"Mc Donald's","address":"C.C. CARREFOUR. CTRA. C-58, KM.17,8","city":"Terrassa","zipCode":"08228"}},{"type":"Feature","id":"","geometry":{"type":"Point","coordinates":[-3.7130493,42.3240601]},"properties":{"marker-symbol":"fast-food","name":"Mc Donald's","address":"C.C. CARREFOUR. CTRA. N-I, KM.236","city":"Burgos","zipCode":"09001"}},{"type":"Feature","id":"","geometry":{"type":"Point","coordinates":[-3.005044,43.2987936]},"properties":{"marker-symbol":"fast-food","name":"Mc Donald's","address":"C.C. CARREFOUR. CTRA. VALLE TRAPAGA","city":"Sestao","zipCode":"48910"}},{"type":"Feature","id":"","geometry":{"type":"Point","coordinates":[-0.481006,38.3452032]},"properties":{"marker-symbol":"fast-food","name":"Mc Donald's","address":"C.C. CARREFOUR. URB. AZAHAR DEL MAR","city":"Torrevieja","zipCode":"03180"}},{"type":"Feature","id":"","geometry":{"type":"Point","coordinates":[-4.7510397,41.6403045]},"properties":{"marker-symbol":"fast-food","name":"Mc Donald's","address":"C.C. CARREFOUR.AVDA.PUENTE COLGANTE","city":"VALLADOLID (CIUDAD PARQUESOL)","zipCode":"47014"}},{"type":"Feature","id":"","geometry":{"type":"Point","coordinates":[-3.9776389,40.4953157]},"properties":{"marker-symbol":"fast-food","name":"Mc Donald's","address":"C.C. CENTRO OESTE. P.I.EL CARRALERO","city":"Majadahonda","zipCode":"28229"}},{"type":"Feature","id":"","geometry":{"type":"Point","coordinates":[2.614935,39.5872599]},"properties":{"marker-symbol":"fast-food","name":"Mc Donald's","address":"C.C. CENTRO PARC. CAMI SON RAPINYA","city":"Palma","zipCode":"07013"}},{"type":"Feature","id":"","geometry":{"type":"Point","coordinates":[-6.2926569,36.5296879]},"properties":{"marker-symbol":"fast-food","name":"Mc Donald's","address":"C.C. COBREROS,CTRA.SANLUCAR-CHIPION","city":"SALUCAR DE BARRAMEDA","zipCode":"11540"}},{"type":"Feature","id":"","geometry":{"type":"Point","coordinates":[-0.4408037,42.1070088]},"properties":{"marker-symbol":"fast-food","name":"Mc Donald's","address":"C.C. COSO REAL. AVDA. DR.ARTERO, 31","city":"Huesca","zipCode":"22004"}},{"type":"Feature","id":"","geometry":{"type":"Point","coordinates":[2.2113698,41.4075609]},"properties":{"marker-symbol":"fast-food","name":"Mc Donald's","address":"C.C. DIAGONAL MAR. LOCAL3370. P.3","city":"Barcelona","zipCode":"08019"}},{"type":"Feature","id":"","geometry":{"type":"Point","coordinates":[-0.727092,37.6649895]},"properties":{"marker-symbol":"fast-food","name":"Mc Donald's","address":"C.C. DOS MARES. CTRA. N-332","city":"San Javier","zipCode":"30730"}},{"type":"Feature","id":"","geometry":{"type":"Point","coordinates":[-3.6471162,40.4604421]},"properties":{"marker-symbol":"fast-food","name":"Mc Donald's","address":"C.C. DREAMS PALACIO DE HIELO, A-13","city":"Madrid","zipCode":"28043"}},{"type":"Feature","id":"","geometry":{"type":"Point","coordinates":[-4.6037231,37.8463341]},"properties":{"marker-symbol":"fast-food","name":"Mc Donald's","address":"C.C. EL ARCANGEL, L. B-21 Y MA-05","city":"Córdoba","zipCode":"14010"}},{"type":"Feature","id":"","geometry":{"type":"Point","coordinates":[-3.6991892,40.3323531]},"properties":{"marker-symbol":"fast-food","name":"Mc Donald's","address":"C.C. EL BULEVAR. CTRA. M-403, S/N","city":"Getafe","zipCode":"28905"}},{"type":"Feature","id":"","geometry":{"type":"Point","coordinates":[-2.4679217,36.8401638]},"properties":{"marker-symbol":"fast-food","name":"Mc Donald's","address":"C.C. EL COPO. CTRA. ALMERIMAR, S/N","city":"Ejido (El)","zipCode":"04700"}},{"type":"Feature","id":"","geometry":{"type":"Point","coordinates":[-3.1592219,40.6258688]},"properties":{"marker-symbol":"fast-food","name":"Mc Donald's","address":"C.C. EL FERIAL PLAZA","city":"Guadalajara","zipCode":"19002"}},{"type":"Feature","id":"","geometry":{"type":"Point","coordinates":[-3.7003454,40.4166909]},"properties":{"marker-symbol":"fast-food","name":"Mc Donald's","address":"C.C. EL FERIAL.CTRA.PINTO-PARLA,S/N","city":"Parla","zipCode":"28980"}},{"type":"Feature","id":"","geometry":{"type":"Point","coordinates":[-0.3263003,39.55756]},"properties":{"marker-symbol":"fast-food","name":"Mc Donald's","address":"C.C. EL MANAR - PARC. AC-2-1","city":"Massalfassar","zipCode":"46560"}},{"type":"Feature","id":"","geometry":{"type":"Point","coordinates":[-0.5210565,39.5628525]},"properties":{"marker-symbol":"fast-food","name":"Mc Donald's","address":"C.C. EL OSITO. TUEJAR, S/N","city":"Eliana (l')","zipCode":"46183"}},{"type":"Feature","id":"","geometry":{"type":"Point","coordinates":[-6.2926569,36.5296879]},"properties":{"marker-symbol":"fast-food","name":"Mc Donald's","address":"C.C. EL PASEO, LOCAL B-18","city":"Puerto de Santa María (El)","zipCode":"11500"}},{"type":"Feature","id":"","geometry":{"type":"Point","coordinates":[-16.6166048,28.0992998]},"properties":{"marker-symbol":"fast-food","name":"Mc Donald's","address":"C.C. EL PASO, LOCALES 6 Y 12","city":"San Miguel de Abona","zipCode":"38620"}},{"type":"Feature","id":"","geometry":{"type":"Point","coordinates":[-3.8994552,40.5607672]},"properties":{"marker-symbol":"fast-food","name":"Mc Donald's","address":"C.C. EL PINAR. CTRA. N-VI, KM. 2,2","city":"Rozas de Madrid (Las)","zipCode":"28230"}},{"type":"Feature","id":"","geometry":{"type":"Point","coordinates":[-0.3607137,39.4496491]},"properties":{"marker-symbol":"fast-food","name":"Mc Donald's","address":"C.C. EL SALER, LOCAL 81","city":"Valencia","zipCode":"46013"}},{"type":"Feature","id":"","geometry":{"type":"Point","coordinates":[-5.6333734,40.9500518]},"properties":{"marker-symbol":"fast-food","name":"Mc Donald's","address":"C.C. EL TORMES, LOCAL 112 BUZON 11","city":"Santa Marta de Tormes","zipCode":"37900"}},{"type":"Feature","id":"","geometry":{"type":"Point","coordinates":[-3.7660432,40.6589526]},"properties":{"marker-symbol":"fast-food","name":"Mc Donald's","address":"C.C. EL VENTANAL DE LA SIERRA","city":"Colmenar Viejo","zipCode":"28770"}},{"type":"Feature","id":"","geometry":{"type":"Point","coordinates":[-4.8477607,37.8417272]},"properties":{"marker-symbol":"fast-food","name":"Mc Donald's","address":"C.C. EL ZOCO, LOCAL 42","city":"Córdoba","zipCode":"14005"}},{"type":"Feature","id":"","geometry":{"type":"Point","coordinates":[-4.7840706,41.6610009]},"properties":{"marker-symbol":"fast-food","name":"Mc Donald's","address":"C.C. EQUINOCIO PARK, LOCAL 10 PTA.1","city":"Zaratán","zipCode":"47610"}},{"type":"Feature","id":"","geometry":{"type":"Point","coordinates":[1.2397775,41.1171324]},"properties":{"marker-symbol":"fast-food","name":"Mc Donald's","address":"C.C. EROSKI PARC CENTRAL","city":"Tarragona","zipCode":"43005"}},{"type":"Feature","id":"","geometry":{"type":"Point","coordinates":[-3.1797301,40.6293987]},"properties":{"marker-symbol":"fast-food","name":"Mc Donald's","address":"C.C. EROSKI. AVDA. DEL EJERCITO, 34","city":"Guadalajara","zipCode":"19004"}},{"type":"Feature","id":"","geometry":{"type":"Point","coordinates":[-1.1371011,37.9868856]},"properties":{"marker-symbol":"fast-food","name":"Mc Donald's","address":"C.C. EROSKI. AVDA. LOPE DE VEGA","city":"Murcia","zipCode":"30005"}},{"type":"Feature","id":"","geometry":{"type":"Point","coordinates":[-1.2109922,38.0509208]},"properties":{"marker-symbol":"fast-food","name":"Mc Donald's","address":"C.C. EROSKI. P.I. EL TAPIADO","city":"Molina de Segura","zipCode":"30500"}},{"type":"Feature","id":"","geometry":{"type":"Point","coordinates":[-1.1298897,37.9834449]},"properties":{"marker-symbol":"fast-food","name":"Mc Donald's","address":"C.C. ESPACIO MEDITERRANEO","city":"Cartagena","zipCode":"30595"}},{"type":"Feature","id":"","geometry":{"type":"Point","coordinates":[-3.9294517,40.5762807]},"properties":{"marker-symbol":"fast-food","name":"Mc Donald's","address":"C.C. ESPACIO TORRELODONES","city":"Torrelodones","zipCode":"28250"}},{"type":"Feature","id":"","geometry":{"type":"Point","coordinates":[2.7829605,41.9703059]},"properties":{"marker-symbol":"fast-food","name":"Mc Donald's","address":"C.C. ESPAI GIRONES, LOCAL 202-203","city":"Salt","zipCode":"17190"}},{"type":"Feature","id":"","geometry":{"type":"Point","coordinates":[-3.6724649,40.3017837]},"properties":{"marker-symbol":"fast-food","name":"Mc Donald's","address":"C.C. FACTORY SUR. CTRA. N-IV","city":"Getafe","zipCode":"28906"}},{"type":"Feature","id":"","geometry":{"type":"Point","coordinates":[-1.9514657,43.3152889]},"properties":{"marker-symbol":"fast-food","name":"Mc Donald's","address":"C.C. GARBERA, LOCAL 70","city":"Donostia-San Sebastián","zipCode":"20015"}},{"type":"Feature","id":"","geometry":{"type":"Point","coordinates":[-3.7490543,40.2887905]},"properties":{"marker-symbol":"fast-food","name":"Mc Donald's","address":"C.C. GETAFE III. AVDA.JUAN CARLOS I","city":"Getafe","zipCode":"28905"}},{"type":"Feature","id":"","geometry":{"type":"Point","coordinates":[2.1886805,41.4038981]},"properties":{"marker-symbol":"fast-food","name":"Mc Donald's","address":"C.C. GLORIES. AVDA. DIAGONAL, 280","city":"Barcelona","zipCode":"08018"}},{"type":"Feature","id":"","geometry":{"type":"Point","coordinates":[-2.724444,42.882778]},"properties":{"marker-symbol":"fast-food","name":"Mc Donald's","address":"C.C. GORBEA. ETXABARRI-IBIÑA","city":"Vitoria-Gasteiz","zipCode":"01196"}},{"type":"Feature","id":"","geometry":{"type":"Point","coordinates":[-6.2926569,36.5296879]},"properties":{"marker-symbol":"fast-food","name":"Mc Donald's","address":"C.C. GRAN SUR, LOCAL 30","city":"Línea de la Concepción (La)","zipCode":"11300"}},{"type":"Feature","id":"","geometry":{"type":"Point","coordinates":[-0.4277937,39.466685]},"properties":{"marker-symbol":"fast-food","name":"Mc Donald's","address":"C.C. GRAN TURIA - LOCAL 119","city":"Xirivella","zipCode":"46950"}},{"type":"Feature","id":"","geometry":{"type":"Point","coordinates":[-0.4643906,38.4788189]},"properties":{"marker-symbol":"fast-food","name":"Mc Donald's","address":"C.C. GRAN VIA, LOCAL 5","city":"Alicante/Alacant","zipCode":"03015"}},{"type":"Feature","id":"","geometry":{"type":"Point","coordinates":[-8.7270068,42.222124]},"properties":{"marker-symbol":"fast-food","name":"Mc Donald's","address":"C.C. GRAN VIA. AVDA. GRAN VIA, 152","city":"Vigo","zipCode":"36210"}},{"type":"Feature","id":"","geometry":{"type":"Point","coordinates":[-0.8894622,41.6723317]},"properties":{"marker-symbol":"fast-food","name":"Mc Donald's","address":"C.C. GRANCASA. AVDA. ZAMBRANO, 35","city":"Zaragoza","zipCode":"50015"}},{"type":"Feature","id":"","geometry":{"type":"Point","coordinates":[2.1806423,41.436921]},"properties":{"marker-symbol":"fast-food","name":"Mc Donald's","address":"C.C. HERON CITY, LOCAL 1/18","city":"Barcelona","zipCode":"08016"}},{"type":"Feature","id":"","geometry":{"type":"Point","coordinates":[-3.8070253,40.3611467]},"properties":{"marker-symbol":"fast-food","name":"Mc Donald's","address":"C.C. HIPERCOR S.JOSE VALDERAS","city":"Alcorcón","zipCode":"28925"}},{"type":"Feature","id":"","geometry":{"type":"Point","coordinates":[-0.4405986,39.5020648]},"properties":{"marker-symbol":"fast-food","name":"Mc Donald's","address":"C.C. KINEPOLIS, SECTOR 14, PARC.P.2","city":"Paterna","zipCode":"46980"}},{"type":"Feature","id":"","geometry":{"type":"Point","coordinates":[-3.8130616,40.4351952]},"properties":{"marker-symbol":"fast-food","name":"Mc Donald's","address":"C.C. KINEPOLIS. EDGAR NEVILLE, S/N","city":"Pozuelo de Alarcón","zipCode":"28223"}},{"type":"Feature","id":"","geometry":{"type":"Point","coordinates":[-15.4463485,28.0987919]},"properties":{"marker-symbol":"fast-food","name":"Mc Donald's","address":"C.C. LA BALLENA,LOCAL 41,CTRA.NORTE","city":"Palmas de Gran Canaria (Las)","zipCode":"35013"}},{"type":"Feature","id":"","geometry":{"type":"Point","coordinates":[-1.9893762,43.3254999]},"properties":{"marker-symbol":"fast-food","name":"Mc Donald's","address":"C.C. LA BRETXA, LOCAL 32","city":"Donostia-San Sebastián","zipCode":"20003"}},{"type":"Feature","id":"","geometry":{"type":"Point","coordinates":[-5.6962931,43.5371429]},"properties":{"marker-symbol":"fast-food","name":"Mc Donald's","address":"C.C. LA CALZADA. C/ MAESTRO A.MORAN","city":"Gijón","zipCode":"33213"}},{"type":"Feature","id":"","geometry":{"type":"Point","coordinates":[-4.8800203,36.5219188]},"properties":{"marker-symbol":"fast-food","name":"Mc Donald's","address":"C.C. LA CAÑADA. CTRA. DE OJEN","city":"Marbella","zipCode":"29600"}},{"type":"Feature","id":"","geometry":{"type":"Point","coordinates":[-4.9859982,36.48398]},"properties":{"marker-symbol":"fast-food","name":"Mc Donald's","address":"C.C. LA COLONIA, CTRA. N-340 S","city":"Marbella","zipCode":"29670"}},{"type":"Feature","id":"","geometry":{"type":"Point","coordinates":[-3.3338547,40.5105476]},"properties":{"marker-symbol":"fast-food","name":"Mc Donald's","address":"C.C. LA DEHESA. CTRA. N- II, KM. 34","city":"Alcalá de Henares","zipCode":"28805"}},{"type":"Feature","id":"","geometry":{"type":"Point","coordinates":[-3.6332498,40.5452327]},"properties":{"marker-symbol":"fast-food","name":"Mc Donald's","address":"C.C. LA GRAN MANZANA. AV.PZA.ESPAÑA","city":"Alcobendas","zipCode":"28100"}},{"type":"Feature","id":"","geometry":{"type":"Point","coordinates":[-3.7232005,37.8562031]},"properties":{"marker-symbol":"fast-food","name":"Mc Donald's","address":"C.C. LA LOMA, PARQUE LAGUNILLAS","city":"Jaén","zipCode":"23009"}},{"type":"Feature","id":"","geometry":{"type":"Point","coordinates":[2.196618,41.4378689]},"properties":{"marker-symbol":"fast-food","name":"Mc Donald's","address":"C.C. LA MAQUINISTA, LOCAL 17-18","city":"Barcelona","zipCode":"08030"}},{"type":"Feature","id":"","geometry":{"type":"Point","coordinates":[-15.4160172,27.9954072]},"properties":{"marker-symbol":"fast-food","name":"Mc Donald's","address":"C.C. LA MARETA","city":"Telde","zipCode":"35200"}},{"type":"Feature","id":"","geometry":{"type":"Point","coordinates":[-4.433644,36.7910683]},"properties":{"marker-symbol":"fast-food","name":"Mc Donald's","address":"C.C. LA ROSALEDA.SIMON BOLIVAR, S/N","city":"Málaga","zipCode":"29011"}},{"type":"Feature","id":"","geometry":{"type":"Point","coordinates":[-0.1073935,39.9965828]},"properties":{"marker-symbol":"fast-food","name":"Mc Donald's","address":"C.C. LA SALERA, LOCAL A17 T17","city":"Castellón de la Plana/Castelló de l","zipCode":"12006"}},{"type":"Feature","id":"","geometry":{"type":"Point","coordinates":[2.1699187,41.387917]},"properties":{"marker-symbol":"fast-food","name":"Mc Donald's","address":"C.C. LA VAILET. CTRA. SANT BOI","city":"SAN VICENT DELS HORTS","zipCode":"08620"}},{"type":"Feature","id":"","geometry":{"type":"Point","coordinates":[-0.7437761,38.2825985]},"properties":{"marker-symbol":"fast-food","name":"Mc Donald's","address":"C.C. L'ALJUB, LOCAL 10-11 PTA. ALTA","city":"Elche/Elx","zipCode":"03205"}},{"type":"Feature","id":"","geometry":{"type":"Point","coordinates":[-15.4741787,28.1255452]},"properties":{"marker-symbol":"fast-food","name":"Mc Donald's","address":"C.C. LAS ARENAS, LOCAL A22-23","city":"Palmas de Gran Canaria (Las)","zipCode":"35010"}},{"type":"Feature","id":"","geometry":{"type":"Point","coordinates":[1.2217459,41.1236157]},"properties":{"marker-symbol":"fast-food","name":"Mc Donald's","address":"C.C. LAS GAVARRAS, ISLA B, PARC.8","city":"Tarragona","zipCode":"43006"}},{"type":"Feature","id":"","geometry":{"type":"Point","coordinates":[-6.2926569,36.5296879]},"properties":{"marker-symbol":"fast-food","name":"Mc Donald's","address":"C.C. LAS MARISMAS. CTRA. N-IV","city":"Puerto de Santa María (El)","zipCode":"11500"}},{"type":"Feature","id":"","geometry":{"type":"Point","coordinates":[-3.3319949,40.6312899]},"properties":{"marker-symbol":"fast-food","name":"Mc Donald's","address":"C.C. LAS ROSAS. AVDA.GUADALAJARA, 1","city":"Madrid","zipCode":"28032"}},{"type":"Feature","id":"","geometry":{"type":"Point","coordinates":[2.0732404,41.3618854]},"properties":{"marker-symbol":"fast-food","name":"Mc Donald's","address":"C.C. LLOBREGAT. CTRA. ESPLUGUES,S/N","city":"Cornellà de Llobregat","zipCode":"08940"}},{"type":"Feature","id":"","geometry":{"type":"Point","coordinates":[-3.8299106,40.3017902]},"properties":{"marker-symbol":"fast-food","name":"Mc Donald's","address":"C.C. LORANCA, LOCAL 207-208","city":"Fuenlabrada","zipCode":"28942"}},{"type":"Feature","id":"","geometry":{"type":"Point","coordinates":[-5.999675,37.3768986]},"properties":{"marker-symbol":"fast-food","name":"Mc Donald's","address":"C.C. LOS ARCOS. AVDA.ANDALUCIA, S/N","city":"Sevilla","zipCode":"41016"}},{"type":"Feature","id":"","geometry":{"type":"Point","coordinates":[-16.7429131,28.1351263]},"properties":{"marker-symbol":"fast-food","name":"Mc Donald's","address":"C.C. LOS OLIVOS","city":"Adeje","zipCode":"38670"}},{"type":"Feature","id":"","geometry":{"type":"Point","coordinates":[-5.4440734,36.1775759]},"properties":{"marker-symbol":"fast-food","name":"Mc Donald's","address":"C.C. LOS PALMONES. P.I.LOS PALMONES","city":"Algeciras","zipCode":"11379"}},{"type":"Feature","id":"","geometry":{"type":"Point","coordinates":[-4.4002069,36.7304684]},"properties":{"marker-symbol":"fast-food","name":"Mc Donald's","address":"C.C. LOS PATIOS. CTRA. CADIZ, S/N","city":"Málaga","zipCode":"29016"}},{"type":"Feature","id":"","geometry":{"type":"Point","coordinates":[-5.8274722,43.3812292]},"properties":{"marker-symbol":"fast-food","name":"Mc Donald's","address":"C.C. LOS PRADOS, LOCAL 1-2","city":"Oviedo","zipCode":"33011"}},{"type":"Feature","id":"","geometry":{"type":"Point","coordinates":[-3.9493555,39.8644817]},"properties":{"marker-symbol":"fast-food","name":"Mc Donald's","address":"C.C. LUZ DEL TAJO.AVDA.RIO BOLADIEZ","city":"Toledo","zipCode":"45007"}},{"type":"Feature","id":"","geometry":{"type":"Point","coordinates":[-3.7093543,40.4807529]},"properties":{"marker-symbol":"fast-food","name":"Mc Donald's","address":"C.C. MADRID 2 LA VAGUADA","city":"Madrid","zipCode":"28029"}},{"type":"Feature","id":"","geometry":{"type":"Point","coordinates":[-3.7016317,40.4091106]},"properties":{"marker-symbol":"fast-food","name":"Mc Donald's","address":"C.C. MADRID SUR. AV.PABLO NERUDA,91","city":"Madrid","zipCode":"28012"}},{"type":"Feature","id":"","geometry":{"type":"Point","coordinates":[2.240888,41.4420207]},"properties":{"marker-symbol":"fast-food","name":"Mc Donald's","address":"C.C. MAGIC BADALONA C. DEL BASKET","city":"Badalona","zipCode":"08912"}},{"type":"Feature","id":"","geometry":{"type":"Point","coordinates":[-4.4929809,36.6748624]},"properties":{"marker-symbol":"fast-food","name":"Mc Donald's","address":"C.C. MALAGA NOSTRUM, L.21 ED. CINES","city":"Málaga","zipCode":"29004"}},{"type":"Feature","id":"","geometry":{"type":"Point","coordinates":[2.1573033,41.3334469]},"properties":{"marker-symbol":"fast-food","name":"Mc Donald's","address":"C.C. MAREMAGNUM. LOCALES 006 Y 101","city":"Barcelona","zipCode":"08039"}},{"type":"Feature","id":"","geometry":{"type":"Point","coordinates":[2.8228124,41.9594288]},"properties":{"marker-symbol":"fast-food","name":"Mc Donald's","address":"C.C. MAS GRI. CTRA. BARCELONA, S/N","city":"Girona","zipCode":"17003"}},{"type":"Feature","id":"","geometry":{"type":"Point","coordinates":[2.4455818,41.5602897]},"properties":{"marker-symbol":"fast-food","name":"Mc Donald's","address":"C.C. MATARO PARC, LOC. 96 Y 97","city":"Mataró","zipCode":"08304"}},{"type":"Feature","id":"","geometry":{"type":"Point","coordinates":[-6.0709617,37.3710151]},"properties":{"marker-symbol":"fast-food","name":"Mc Donald's","address":"C.C. MEGAOCIO ALJARAFE","city":"Bormujos","zipCode":"41930"}},{"type":"Feature","id":"","geometry":{"type":"Point","coordinates":[-5.6431662,40.9796311]},"properties":{"marker-symbol":"fast-food","name":"Mc Donald's","address":"C.C. MERCA-80 GARRIDO","city":"Salamanca","zipCode":"37004"}},{"type":"Feature","id":"","geometry":{"type":"Point","coordinates":[-16.2595694,28.4578221]},"properties":{"marker-symbol":"fast-food","name":"Mc Donald's","address":"C.C. MERIDIANO,AVDA.LA SALLE, S/N","city":"Santa Cruz de Tenerife","zipCode":"38005"}},{"type":"Feature","id":"","geometry":{"type":"Point","coordinates":[-3.699731,42.3408747]},"properties":{"marker-symbol":"fast-food","name":"Mc Donald's","address":"C.C. MIRADOR. CTRA. SANTANDER, KM.2","city":"Burgos","zipCode":"09066"}},{"type":"Feature","id":"","geometry":{"type":"Point","coordinates":[-5.9726432,37.3849885]},"properties":{"marker-symbol":"fast-food","name":"Mc Donald's","address":"C.C. NERVION PLAZA, LUIS MORALES S/","city":"Sevilla","zipCode":"41005"}},{"type":"Feature","id":"","geometry":{"type":"Point","coordinates":[-0.380721,39.4845265]},"properties":{"marker-symbol":"fast-food","name":"Mc Donald's","address":"C.C. NOVO CENTRO,LOCALES 52,53 Y 54","city":"Valencia","zipCode":"46009"}},{"type":"Feature","id":"","geometry":{"type":"Point","coordinates":[-1.1257082,38.0471977]},"properties":{"marker-symbol":"fast-food","name":"Mc Donald's","address":"C.C. NUEVA CONDOMINA. LOCAL A 27-28","city":"Murcia","zipCode":"30110"}},{"type":"Feature","id":"","geometry":{"type":"Point","coordinates":[2.0812289,41.5574545]},"properties":{"marker-symbol":"fast-food","name":"Mc Donald's","address":"C.C. PADDOCK BOULEVARD. F.MACIA, 46","city":"Sabadell","zipCode":"08206"}},{"type":"Feature","id":"","geometry":{"type":"Point","coordinates":[-0.4789323,38.3392332]},"properties":{"marker-symbol":"fast-food","name":"Mc Donald's","address":"C.C. PANORAMIS, PUERTO DE ALICANTE","city":"Alicante/Alacant","zipCode":"03001"}},{"type":"Feature","id":"","geometry":{"type":"Point","coordinates":[-3.6179814,37.1401032]},"properties":{"marker-symbol":"fast-food","name":"Mc Donald's","address":"C.C. PARQUE ALBAN","city":"Armilla","zipCode":"18100"}},{"type":"Feature","id":"","geometry":{"type":"Point","coordinates":[-3.8070253,40.3611467]},"properties":{"marker-symbol":"fast-food","name":"Mc Donald's","address":"C.C. PARQUE ALCORCON. CTRA. N-V, 15","city":"Alcorcón","zipCode":"28925"}},{"type":"Feature","id":"","geometry":{"type":"Point","coordinates":[-5.791883,43.2060389]},"properties":{"marker-symbol":"fast-food","name":"Mc Donald's","address":"C.C. PARQUE ASTUR. CTRA. CAMPO TIRO","city":"Corvera de Asturias","zipCode":"33400"}},{"type":"Feature","id":"","geometry":{"type":"Point","coordinates":[-16.2485369,28.4683973]},"properties":{"marker-symbol":"fast-food","name":"Mc Donald's","address":"C.C. PARQUE BULEVAR, LOCAL 5, 6 Y 7","city":"Santa Cruz de Tenerife","zipCode":"38002"}},{"type":"Feature","id":"","geometry":{"type":"Point","coordinates":[-4.7898731,37.7753558]},"properties":{"marker-symbol":"fast-food","name":"Mc Donald's","address":"C.C. PARQUE GUADALQUIVIR, PARC. 46","city":"Córdoba","zipCode":"14013"}},{"type":"Feature","id":"","geometry":{"type":"Point","coordinates":[-15.4419546,27.9665844]},"properties":{"marker-symbol":"fast-food","name":"Mc Donald's","address":"C.C. PARQUE MARITIMO","city":"Telde","zipCode":"35200"}},{"type":"Feature","id":"","geometry":{"type":"Point","coordinates":[-3.7327191,40.3400009]},"properties":{"marker-symbol":"fast-food","name":"Mc Donald's","address":"C.C. PARQUESUR, GRAN BRETAÑA, 68","city":"Leganés","zipCode":"28916"}},{"type":"Feature","id":"","geometry":{"type":"Point","coordinates":[-3.8731307,43.4187578]},"properties":{"marker-symbol":"fast-food","name":"Mc Donald's","address":"C.C. PEÑACASTILLO. PEÑACASTILLO, 3","city":"Santander","zipCode":"39011"}},{"type":"Feature","id":"","geometry":{"type":"Point","coordinates":[-4.013361,40.6716505]},"properties":{"marker-symbol":"fast-food","name":"Mc Donald's","address":"C.C. PLANETOCIO. TEJAR,ESQ.AVELLANO","city":"Alpedrete","zipCode":"28430"}},{"type":"Feature","id":"","geometry":{"type":"Point","coordinates":[-5.9978005,37.3869561]},"properties":{"marker-symbol":"fast-food","name":"Mc Donald's","address":"C.C. PLAZA DE ARMAS, LOCAL C-44","city":"Sevilla","zipCode":"41001"}},{"type":"Feature","id":"","geometry":{"type":"Point","coordinates":[-0.8807946,41.6329488]},"properties":{"marker-symbol":"fast-food","name":"Mc Donald's","address":"C.C. PLAZA IMPERIAL","city":"Zaragoza","zipCode":"50007"}},{"type":"Feature","id":"","geometry":{"type":"Point","coordinates":[-0.4643906,38.373599]},"properties":{"marker-symbol":"fast-food","name":"Mc Donald's","address":"C.C. PLAZA MAR 2. AVDA. DENIA, S/N","city":"Alicante/Alacant","zipCode":"03016"}},{"type":"Feature","id":"","geometry":{"type":"Point","coordinates":[-4.4929809,36.6748624]},"properties":{"marker-symbol":"fast-food","name":"Mc Donald's","address":"C.C. PLAZA MAYOR, CTRA.N-340,KM.331","city":"Málaga","zipCode":"29004"}},{"type":"Feature","id":"","geometry":{"type":"Point","coordinates":[-8.7233402,42.2312671]},"properties":{"marker-symbol":"fast-food","name":"Mc Donald's","address":"C.C. PLAZA, PZA ELIPTICA, S/N","city":"Vigo","zipCode":"36203"}},{"type":"Feature","id":"","geometry":{"type":"Point","coordinates":[-3.5863313,40.4419938]},"properties":{"marker-symbol":"fast-food","name":"Mc Donald's","address":"C.C. PLENILUNIO, LOCAL 209","city":"Madrid","zipCode":"28022"}},{"type":"Feature","id":"","geometry":{"type":"Point","coordinates":[-7.8653578,42.341251]},"properties":{"marker-symbol":"fast-food","name":"Mc Donald's","address":"C.C. PONTEVELLA, LOCAL 0-10","city":"Ourense","zipCode":"32003"}},{"type":"Feature","id":"","geometry":{"type":"Point","coordinates":[0.0239688,38.8267502]},"properties":{"marker-symbol":"fast-food","name":"Mc Donald's","address":"C.C. PORTAL DE LA MARINA","city":"Ondara","zipCode":"03760"}},{"type":"Feature","id":"","geometry":{"type":"Point","coordinates":[2.6040436,39.5659486]},"properties":{"marker-symbol":"fast-food","name":"Mc Donald's","address":"C.C. PORTO PI CENTRO, LOCAL 1409","city":"Palma","zipCode":"07015"}},{"type":"Feature","id":"","geometry":{"type":"Point","coordinates":[2.6040436,39.5659486]},"properties":{"marker-symbol":"fast-food","name":"Mc Donald's","address":"C.C. PORTO PI. AVDA. INGENIERO ROCA","city":"Palma","zipCode":"07015"}},{"type":"Feature","id":"","geometry":{"type":"Point","coordinates":[-3.7208589,40.4212418]},"properties":{"marker-symbol":"fast-food","name":"Mc Donald's","address":"C.C. PRINCIPE PIO. PSO.LA FLORIDA,2","city":"Madrid","zipCode":"28008"}},{"type":"Feature","id":"","geometry":{"type":"Point","coordinates":[-0.5730713,38.3257169]},"properties":{"marker-symbol":"fast-food","name":"Mc Donald's","address":"C.C. PUERTA DE ALICANTE, LOCAL 18","city":"Alicante/Alacant","zipCode":"03007"}},{"type":"Feature","id":"","geometry":{"type":"Point","coordinates":[-4.0380803,38.0376214]},"properties":{"marker-symbol":"fast-food","name":"Mc Donald's","address":"C.C. PUERTA DE EUROPA. AVDA.LONDRES","city":"Andújar","zipCode":"23740"}},{"type":"Feature","id":"","geometry":{"type":"Point","coordinates":[-0.8765379,41.6562873]},"properties":{"marker-symbol":"fast-food","name":"Mc Donald's","address":"C.C. Puerto Venecia - Avda. Puerto","city":"Zaragoza","zipCode":"50021"}},{"type":"Feature","id":"","geometry":{"type":"Point","coordinates":[-4.2853983,36.7152548]},"properties":{"marker-symbol":"fast-food","name":"Mc Donald's","address":"C.C. RINCON DE LA VICTORIA","city":"Rincón de la Victoria","zipCode":"29720"}},{"type":"Feature","id":"","geometry":{"type":"Point","coordinates":[-0.2526163,39.1436895]},"properties":{"marker-symbol":"fast-food","name":"Mc Donald's","address":"C.C. SABECO. CTRA. SUECA, S/N","city":"Cullera","zipCode":"46400"}},{"type":"Feature","id":"","geometry":{"type":"Point","coordinates":[2.1699187,41.387917]},"properties":{"marker-symbol":"fast-food","name":"Mc Donald's","address":"C.C. SANT CUGAT,CTRA.RUBI-S.CUGAT","city":"Sant Cugat del Vallès","zipCode":"08190"}},{"type":"Feature","id":"","geometry":{"type":"Point","coordinates":[2.0431027,41.3473838]},"properties":{"marker-symbol":"fast-food","name":"Mc Donald's","address":"C.C. SANT PRI. VIAL COMERCIAL, 19","city":"Sant Boi de Llobregat","zipCode":"08830"}},{"type":"Feature","id":"","geometry":{"type":"Point","coordinates":[2.0663551,41.590147]},"properties":{"marker-symbol":"fast-food","name":"Mc Donald's","address":"C.C. SANTA MARGARIDA II","city":"Terrassa","zipCode":"08200"}},{"type":"Feature","id":"","geometry":{"type":"Point","coordinates":[-0.3857862,39.4250481]},"properties":{"marker-symbol":"fast-food","name":"Mc Donald's","address":"C.C. SEDAVI. AVDA. ALBUFERA, S/N","city":"Sedaví","zipCode":"46910"}},{"type":"Feature","id":"","geometry":{"type":"Point","coordinates":[-15.4258448,28.0440732]},"properties":{"marker-symbol":"fast-food","name":"Mc Donald's","address":"C.C. SIETE PALMAS, LOCAL 2-23","city":"Palmas de Gran Canaria (Las)","zipCode":"35019"}},{"type":"Feature","id":"","geometry":{"type":"Point","coordinates":[-1.1257082,38.0471977]},"properties":{"marker-symbol":"fast-food","name":"Mc Donald's","address":"C.C. THADER. LOCAL P37-38","city":"Murcia","zipCode":"30110"}},{"type":"Feature","id":"","geometry":{"type":"Point","coordinates":[-0.5104873,39.4181429]},"properties":{"marker-symbol":"fast-food","name":"Mc Donald's","address":"C.C. TOLL I L'ALBERCA","city":"Torrent","zipCode":"46900"}},{"type":"Feature","id":"","geometry":{"type":"Point","coordinates":[-4.5727598,36.5974616]},"properties":{"marker-symbol":"fast-food","name":"Mc Donald's","address":"C.C. TROPICANA II, LOCAL 1","city":"Benalmádena","zipCode":"29630"}},{"type":"Feature","id":"","geometry":{"type":"Point","coordinates":[-2.049934,43.2713821]},"properties":{"marker-symbol":"fast-food","name":"Mc Donald's","address":"C.C. URBIL, P.I. ASTEASUAIN","city":"Usurbil","zipCode":"20170"}},{"type":"Feature","id":"","geometry":{"type":"Point","coordinates":[-0.8673947,41.6410795]},"properties":{"marker-symbol":"fast-food","name":"Mc Donald's","address":"C.C. UTRILLAS PLAZA. PZA.UTRILLAS,6","city":"Zaragoza","zipCode":"50013"}},{"type":"Feature","id":"","geometry":{"type":"Point","coordinates":[-4.7104752,41.6691673]},"properties":{"marker-symbol":"fast-food","name":"Mc Donald's","address":"C.C. VALLADOLID 2. C/COSTA BRAVA, 2","city":"Valladolid","zipCode":"47010"}},{"type":"Feature","id":"","geometry":{"type":"Point","coordinates":[-3.8375413,43.4171199]},"properties":{"marker-symbol":"fast-food","name":"Mc Donald's","address":"C.C. VALLE REAL. AVDA. ALDAY, S/N","city":"Camargo","zipCode":"39600"}},{"type":"Feature","id":"","geometry":{"type":"Point","coordinates":[-4.4323576,36.7091025]},"properties":{"marker-symbol":"fast-food","name":"Mc Donald's","address":"C.C. VIALIA MALAGA","city":"Málaga","zipCode":"29002"}},{"type":"Feature","id":"","geometry":{"type":"Point","coordinates":[-16.2548558,28.46981]},"properties":{"marker-symbol":"fast-food","name":"Mc Donald's","address":"C.C. VILLA DE OROTAVA, LOCAL 16","city":"Orotava (La)","zipCode":"38300"}},{"type":"Feature","id":"","geometry":{"type":"Point","coordinates":[-3.9202906,40.2688395]},"properties":{"marker-symbol":"fast-food","name":"Mc Donald's","address":"C.C. XANADU, LOCAL R-2","city":"Arroyomolinos","zipCode":"28939"}},{"type":"Feature","id":"","geometry":{"type":"Point","coordinates":[-1.1329437,37.9946844]},"properties":{"marker-symbol":"fast-food","name":"Mc Donald's","address":"C.C. ZIG ZAG. AVDA. JUAN CARLOS I","city":"Murcia","zipCode":"30008"}},{"type":"Feature","id":"","geometry":{"type":"Point","coordinates":[-2.9388228,43.2640611]},"properties":{"marker-symbol":"fast-food","name":"Mc Donald's","address":"C.C. ZUBIARTE.LEHENDAKARI LEIZAOLA,","city":"Bilbao","zipCode":"48011"}},{"type":"Feature","id":"","geometry":{"type":"Point","coordinates":[-5.9962951,37.38264]},"properties":{"marker-symbol":"fast-food","name":"Mc Donald's","address":"CAMINO DE TOMARES, PARCELA 1","city":"MAIRENA DE LOS ALJARAFES","zipCode":"41927"}},{"type":"Feature","id":"","geometry":{"type":"Point","coordinates":[-2.4647436,42.4535837]},"properties":{"marker-symbol":"fast-food","name":"Mc Donald's","address":"CLAVIJO, 65","city":"Logroño","zipCode":"26008"}},{"type":"Feature","id":"","geometry":{"type":"Point","coordinates":[-4.7743365,36.5194999]},"properties":{"marker-symbol":"fast-food","name":"Mc Donald's","address":"COMPLEJO MARINA BANUS, LOCAL 6","city":"Marbella","zipCode":"29600"}},{"type":"Feature","id":"","geometry":{"type":"Point","coordinates":[-5.663535,43.5401498]},"properties":{"marker-symbol":"fast-food","name":"Mc Donald's","address":"CORRIDA, 46","city":"Gijón","zipCode":"33206"}},{"type":"Feature","id":"","geometry":{"type":"Point","coordinates":[-2.5979449,36.8108325]},"properties":{"marker-symbol":"fast-food","name":"Mc Donald's","address":"Ctra. ALICUN-ROTONDA PARADOR","city":"Roquetas de Mar","zipCode":"04740"}},{"type":"Feature","id":"","geometry":{"type":"Point","coordinates":[2.0139127,39.2522857]},"properties":{"marker-symbol":"fast-food","name":"Mc Donald's","address":"Ctra. ARENAL, 29 - BALNEARIO 8","city":"Palma","zipCode":"07610"}},{"type":"Feature","id":"","geometry":{"type":"Point","coordinates":[1.5887477,41.1926346]},"properties":{"marker-symbol":"fast-food","name":"Mc Donald's","address":"Ctra. C-246. URBANIZACION MAS MEL","city":"Calafell","zipCode":"43820"}},{"type":"Feature","id":"","geometry":{"type":"Point","coordinates":[1.1077258,41.1436344]},"properties":{"marker-symbol":"fast-food","name":"Mc Donald's","address":"Ctra. CRUCE, AVDA.UNIVERSIDAD","city":"Reus","zipCode":"43205"}},{"type":"Feature","id":"","geometry":{"type":"Point","coordinates":[2.1176474,41.3758394]},"properties":{"marker-symbol":"fast-food","name":"Mc Donald's","address":"Ctra. DE COLLBLANC, 22","city":"Hospitalet de Llobregat (L')","zipCode":"08902"}},{"type":"Feature","id":"","geometry":{"type":"Point","coordinates":[-0.5644915,38.2000575]},"properties":{"marker-symbol":"fast-food","name":"Mc Donald's","address":"Ctra. DE ELCHE, 9","city":"Santa Pola","zipCode":"03130"}},{"type":"Feature","id":"","geometry":{"type":"Point","coordinates":[2.0359317,41.5066729]},"properties":{"marker-symbol":"fast-food","name":"Mc Donald's","address":"Ctra. DE TERRASSA, 143","city":"Rubí","zipCode":"08191"}},{"type":"Feature","id":"","geometry":{"type":"Point","coordinates":[-6.33E-4,38.8662617]},"properties":{"marker-symbol":"fast-food","name":"Mc Donald's","address":"Ctra. DENIA-ONDARA, SALIDA 4","city":"Dénia","zipCode":"03700"}},{"type":"Feature","id":"","geometry":{"type":"Point","coordinates":[2.0879021,41.3449881]},"properties":{"marker-symbol":"fast-food","name":"Mc Donald's","address":"Ctra. HOSPITALET, 10. P.I. ALAMEDA","city":"Cornellà de Llobregat","zipCode":"08940"}},{"type":"Feature","id":"","geometry":{"type":"Point","coordinates":[-13.8549591,28.4123052]},"properties":{"marker-symbol":"fast-food","name":"Mc Donald's","address":"Ctra. JANDIA, KM.11-URB.EL CASTILLO","city":"ANTIGUA - FUERTEVENTURA","zipCode":"35610"}},{"type":"Feature","id":"","geometry":{"type":"Point","coordinates":[2.7953998,41.6865021]},"properties":{"marker-symbol":"fast-food","name":"Mc Donald's","address":"Ctra. LLORET-BLANES, S/N","city":"Blanes","zipCode":"17300"}},{"type":"Feature","id":"","geometry":{"type":"Point","coordinates":[-3.5623454,40.5844621]},"properties":{"marker-symbol":"fast-food","name":"Mc Donald's","address":"Ctra. M-100, KM. 0,400","city":"San Sebastián de los Reyes","zipCode":"28700"}},{"type":"Feature","id":"","geometry":{"type":"Point","coordinates":[-3.7212852,40.3046071]},"properties":{"marker-symbol":"fast-food","name":"Mc Donald's","address":"Ctra. M-406, KM.10","city":"Getafe","zipCode":"28904"}},{"type":"Feature","id":"","geometry":{"type":"Point","coordinates":[2.1885045,41.4823096]},"properties":{"marker-symbol":"fast-food","name":"Mc Donald's","address":"Ctra. N-152. SECTOR IND. CAN MILANS","city":"Montcada i Reixac","zipCode":"08110"}},{"type":"Feature","id":"","geometry":{"type":"Point","coordinates":[-0.481006,38.3452032]},"properties":{"marker-symbol":"fast-food","name":"Mc Donald's","address":"Ctra. N-332, ESQ. AVDA. ALBIR","city":"Alfàs del Pi (l')","zipCode":"03580"}},{"type":"Feature","id":"","geometry":{"type":"Point","coordinates":[-0.4677916,38.3591164]},"properties":{"marker-symbol":"fast-food","name":"Mc Donald's","address":"Ctra. N-332, KM.114,75","city":"Sant Joan d'Alacant","zipCode":"03350"}},{"type":"Feature","id":"","geometry":{"type":"Point","coordinates":[-4.7256907,36.4953733]},"properties":{"marker-symbol":"fast-food","name":"Mc Donald's","address":"Ctra. N-340, KM. 196,5. URB.JARALES","city":"MIJAS-CALAHONDA","zipCode":"29650"}},{"type":"Feature","id":"","geometry":{"type":"Point","coordinates":[-0.8650839,38.1831624]},"properties":{"marker-symbol":"fast-food","name":"Mc Donald's","address":"Ctra. N-340. P.I. ALTABIX, E-25","city":"Elche/Elx","zipCode":"03202"}},{"type":"Feature","id":"","geometry":{"type":"Point","coordinates":[-6.0891032,36.3896325]},"properties":{"marker-symbol":"fast-food","name":"Mc Donald's","address":"Ctra. N-340. P.I. EL TORNO II","city":"Chiclana de la Frontera","zipCode":"11130"}},{"type":"Feature","id":"","geometry":{"type":"Point","coordinates":[2.5514795,41.579445]},"properties":{"marker-symbol":"fast-food","name":"Mc Donald's","address":"Ctra. N-II, CRUCE RIAL LLARG","city":"Arenys de Mar","zipCode":"08350"}},{"type":"Feature","id":"","geometry":{"type":"Point","coordinates":[2.5216319,41.5673457]},"properties":{"marker-symbol":"fast-food","name":"Mc Donald's","address":"Ctra. N-II, POLIG. 37","city":"SANTA SUSANA","zipCode":"08398"}},{"type":"Feature","id":"","geometry":{"type":"Point","coordinates":[1.9276824,41.4735514]},"properties":{"marker-symbol":"fast-food","name":"Mc Donald's","address":"Ctra. N-II. P.I. EL CONGOST","city":"Martorell","zipCode":"08760"}},{"type":"Feature","id":"","geometry":{"type":"Point","coordinates":[2.1699187,41.387917]},"properties":{"marker-symbol":"fast-food","name":"Mc Donald's","address":"Ctra. N-II. SECTOR VORAMAR II","city":"Masnou (El)","zipCode":"08320"}},{"type":"Feature","id":"","geometry":{"type":"Point","coordinates":[-3.6960129,40.2445452]},"properties":{"marker-symbol":"fast-food","name":"Mc Donald's","address":"Ctra. N-IV, KM. 20,2","city":"Pinto","zipCode":"28320"}},{"type":"Feature","id":"","geometry":{"type":"Point","coordinates":[-4.7743365,36.5194999]},"properties":{"marker-symbol":"fast-food","name":"Mc Donald's","address":"Ctra. OJEN,S/N,ED.HUERTA DE CRISTAL","city":"Marbella","zipCode":"29600"}},{"type":"Feature","id":"","geometry":{"type":"Point","coordinates":[-0.2782788,39.6801381]},"properties":{"marker-symbol":"fast-food","name":"Mc Donald's","address":"Ctra. SAGUNTO-PTO. SAGUNTO, KM. 2","city":"Sagunto/Sagunt","zipCode":"46500"}},{"type":"Feature","id":"","geometry":{"type":"Point","coordinates":[2.8236999,41.9817957]},"properties":{"marker-symbol":"fast-food","name":"Mc Donald's","address":"Ctra. SAN FELIU - PALAMOS, 1","city":"Castelló d'Empúries","zipCode":"17250"}},{"type":"Feature","id":"","geometry":{"type":"Point","coordinates":[2.2531929,41.9273762]},"properties":{"marker-symbol":"fast-food","name":"Mc Donald's","address":"Ctra. SANT HIPOLIT,43.P.I.SOT PRADA","city":"Vic","zipCode":"08500"}},{"type":"Feature","id":"","geometry":{"type":"Point","coordinates":[-5.6421113,37.0714616]},"properties":{"marker-symbol":"fast-food","name":"Mc Donald's","address":"Ctra. Utrera - Arahal, km 77, salid","city":"Utrera","zipCode":"41710"}},{"type":"Feature","id":"","geometry":{"type":"Point","coordinates":[-2.1160791,40.0423372]},"properties":{"marker-symbol":"fast-food","name":"Mc Donald's","address":"Ctra. VALENCIA, N-320, KM.136,5","city":"Cuenca","zipCode":"16004"}},{"type":"Feature","id":"","geometry":{"type":"Point","coordinates":[-6.4045007,39.4662873]},"properties":{"marker-symbol":"fast-food","name":"Mc Donald's","address":"Ctra. VALENCIA-ALCANTARA, S/N","city":"Cáceres","zipCode":"10005"}},{"type":"Feature","id":"","geometry":{"type":"Point","coordinates":[2.2507317,41.4518333]},"properties":{"marker-symbol":"fast-food","name":"Mc Donald's","address":"DEL MAR, ESQ. SAN JOAQUIN 1-3","city":"Badalona","zipCode":"08911"}},{"type":"Feature","id":"","geometry":{"type":"Point","coordinates":[-16.6291304,28.2915637]},"properties":{"marker-symbol":"fast-food","name":"Mc Donald's","address":"EDIFICIO NUEVO MAR, LOCALES 1 Y 2","city":"ARONA-PLAYA DE LOS CRISTIANOS","zipCode":"38650"}},{"type":"Feature","id":"","geometry":{"type":"Point","coordinates":[-3.7049902,40.4163306]},"properties":{"marker-symbol":"fast-food","name":"Mc Donald's","address":"ESPARTEROS, 1","city":"Madrid","zipCode":"28012"}},{"type":"Feature","id":"","geometry":{"type":"Point","coordinates":[-0.4825406,38.3436056]},"properties":{"marker-symbol":"fast-food","name":"Mc Donald's","address":"EXPLANADA DE ESPAÑA, 8","city":"Alicante/Alacant","zipCode":"03002"}},{"type":"Feature","id":"","geometry":{"type":"Point","coordinates":[-3.6736654,40.4341204]},"properties":{"marker-symbol":"fast-food","name":"Mc Donald's","address":"FRANCISCO SILVELA, 48","city":"Madrid","zipCode":"28028"}},{"type":"Feature","id":"","geometry":{"type":"Point","coordinates":[-3.7068182,40.420983]},"properties":{"marker-symbol":"fast-food","name":"Mc Donald's","address":"GRAN VIA, 52","city":"Madrid","zipCode":"28013"}},{"type":"Feature","id":"","geometry":{"type":"Point","coordinates":[-3.7039646,40.4471597]},"properties":{"marker-symbol":"fast-food","name":"Mc Donald's","address":"GTA. CUATRO CAMINOS, 5","city":"Madrid","zipCode":"28020"}},{"type":"Feature","id":"","geometry":{"type":"Point","coordinates":[1.4881783,41.1780367]},"properties":{"marker-symbol":"fast-food","name":"Mc Donald's","address":"HISPANO SUIZA, 33-35","city":"Roda de Barà","zipCode":"43883"}},{"type":"Feature","id":"","geometry":{"type":"Point","coordinates":[-3.7183039,40.4352261]},"properties":{"marker-symbol":"fast-food","name":"Mc Donald's","address":"ISAAC PERAL, 4","city":"Madrid","zipCode":"28015"}},{"type":"Feature","id":"","geometry":{"type":"Point","coordinates":[0.6248729,41.6098836]},"properties":{"marker-symbol":"fast-food","name":"Mc Donald's","address":"JAUME II, S/N","city":"Lleida","zipCode":"25001"}},{"type":"Feature","id":"","geometry":{"type":"Point","coordinates":[2.8475835,41.6987848]},"properties":{"marker-symbol":"fast-food","name":"Mc Donald's","address":"JOAN MANUEL BERNAT, 1","city":"Lloret de Mar","zipCode":"17310"}},{"type":"Feature","id":"","geometry":{"type":"Point","coordinates":[2.6470543,39.5713258]},"properties":{"marker-symbol":"fast-food","name":"Mc Donald's","address":"JUAN CARLOS I, 7","city":"Palma","zipCode":"07012"}},{"type":"Feature","id":"","geometry":{"type":"Point","coordinates":[-5.9960093,37.3759018]},"properties":{"marker-symbol":"fast-food","name":"Mc Donald's","address":"Juan Sebastián Elcano, 20","city":"Gelves","zipCode":"41120"}},{"type":"Feature","id":"","geometry":{"type":"Point","coordinates":[-3.859612,43.4575333]},"properties":{"marker-symbol":"fast-food","name":"Mc Donald's","address":"JULIO JAURENA, 6","city":"Santander","zipCode":"39011"}},{"type":"Feature","id":"","geometry":{"type":"Point","coordinates":[-5.9950724,37.3925613]},"properties":{"marker-symbol":"fast-food","name":"Mc Donald's","address":"LA CAMPANA, 5","city":"Sevilla","zipCode":"41002"}},{"type":"Feature","id":"","geometry":{"type":"Point","coordinates":[2.6090043,39.6329439]},"properties":{"marker-symbol":"fast-food","name":"Mc Donald's","address":"LEOCADIA TOGORES, S/N, PARC. F","city":"Palma","zipCode":"07010"}},{"type":"Feature","id":"","geometry":{"type":"Point","coordinates":[-3.6696277,40.4471387]},"properties":{"marker-symbol":"fast-food","name":"Mc Donald's","address":"LOPEZ DE HOYOS, 153","city":"Madrid","zipCode":"28002"}},{"type":"Feature","id":"","geometry":{"type":"Point","coordinates":[-3.6395141,40.4072602]},"properties":{"marker-symbol":"fast-food","name":"Mc Donald's","address":"MANUEL MACHADO, ESQ.LUIS MARICHALAR","city":"Madrid","zipCode":"28030"}},{"type":"Feature","id":"","geometry":{"type":"Point","coordinates":[-3.6673942,40.5614212]},"properties":{"marker-symbol":"fast-food","name":"Mc Donald's","address":"MARQUES DE VALDAVIA, 140. EE.SS. BP","city":"Alcobendas","zipCode":"28100"}},{"type":"Feature","id":"","geometry":{"type":"Point","coordinates":[-13.6521903,28.9220172]},"properties":{"marker-symbol":"fast-food","name":"Mc Donald's","address":"MARTE, S/N. PTO. DEL CARMEN","city":"TIAS - LANZAROTE","zipCode":"35510"}},{"type":"Feature","id":"","geometry":{"type":"Point","coordinates":[2.302846,41.6117889]},"properties":{"marker-symbol":"fast-food","name":"Mc Donald's","address":"Matagalls, 9","city":"Granollers","zipCode":"08400"}},{"type":"Feature","id":"","geometry":{"type":"Point","coordinates":[2.1560753,41.4023493]},"properties":{"marker-symbol":"fast-food","name":"Mc Donald's","address":"MAYOR DE GRACIA, 113","city":"Barcelona","zipCode":"08012"}},{"type":"Feature","id":"","geometry":{"type":"Point","coordinates":[-15.4163261,28.1058017]},"properties":{"marker-symbol":"fast-food","name":"Mc Donald's","address":"MAYOR DE TRIANA, 103","city":"Palmas de Gran Canaria (Las)","zipCode":"35002"}},{"type":"Feature","id":"","geometry":{"type":"Point","coordinates":[2.6582815,39.572875]},"properties":{"marker-symbol":"fast-food","name":"Mc Donald's","address":"NUREDDUNA, 1 BAJOS","city":"Palma","zipCode":"07006"}},{"type":"Feature","id":"","geometry":{"type":"Point","coordinates":[-3.6954919,40.4487748]},"properties":{"marker-symbol":"fast-food","name":"Mc Donald's","address":"ORENSE, 15","city":"Madrid","zipCode":"28020"}},{"type":"Feature","id":"","geometry":{"type":"Point","coordinates":[2.0201987,41.316006]},"properties":{"marker-symbol":"fast-food","name":"Mc Donald's","address":"P.I. CAN CALDERON, CTRA.COMARCAL 24","city":"Viladecans","zipCode":"08840"}},{"type":"Feature","id":"","geometry":{"type":"Point","coordinates":[-3.8736138,40.4555279]},"properties":{"marker-symbol":"fast-food","name":"Mc Donald's","address":"P.I. EL CARRALERO,C/FRESA, 1","city":"Majadahonda","zipCode":"28220"}},{"type":"Feature","id":"","geometry":{"type":"Point","coordinates":[-0.610547,38.8210172]},"properties":{"marker-symbol":"fast-food","name":"Mc Donald's","address":"P.I. EL PLA, AVDA. TEXTIL,S/N","city":"Ontinyent","zipCode":"46870"}},{"type":"Feature","id":"","geometry":{"type":"Point","coordinates":[-8.395835,43.3708731]},"properties":{"marker-symbol":"fast-food","name":"Mc Donald's","address":"P.I. ENSENADA DE LA GANDARA, S/N","city":"Ferrol","zipCode":"15407"}},{"type":"Feature","id":"","geometry":{"type":"Point","coordinates":[-2.4359781,36.8841517]},"properties":{"marker-symbol":"fast-food","name":"Mc Donald's","address":"P.I. LA CEPA","city":"Huércal de Almería","zipCode":"04230"}},{"type":"Feature","id":"","geometry":{"type":"Point","coordinates":[1.6867826,41.3362743]},"properties":{"marker-symbol":"fast-food","name":"Mc Donald's","address":"P.I. MERCADERIES, AVDA. TARRAGONA","city":"Vilafranca del Penedès","zipCode":"08720"}},{"type":"Feature","id":"","geometry":{"type":"Point","coordinates":[-16.2595694,28.4578221]},"properties":{"marker-symbol":"fast-food","name":"Mc Donald's","address":"PARQUE MARITIMO CESAR MANRIQUE","city":"Santa Cruz de Tenerife","zipCode":"38005"}},{"type":"Feature","id":"","geometry":{"type":"Point","coordinates":[2.1530069,41.4096213]},"properties":{"marker-symbol":"fast-food","name":"Mc Donald's","address":"PELAYO, 62","city":"Barcelona","zipCode":"08001"}},{"type":"Feature","id":"","geometry":{"type":"Point","coordinates":[-3.5711466,40.4678932]},"properties":{"marker-symbol":"fast-food","name":"Mc Donald's","address":"PLAN BARAJAS, L.T1 10. T.4 AIRE","city":"Madrid","zipCode":"28042"}},{"type":"Feature","id":"","geometry":{"type":"Point","coordinates":[-3.5711466,40.4678932]},"properties":{"marker-symbol":"fast-food","name":"Mc Donald's","address":"PLAN BARAJAS, L.T1, 14. T-4 TIERRA","city":"Madrid","zipCode":"28042"}},{"type":"Feature","id":"","geometry":{"type":"Point","coordinates":[-1.8830646,39.0168552]},"properties":{"marker-symbol":"fast-food","name":"Mc Donald's","address":"PLAN PARCIAL SECTOR 14, PARC. T4-A","city":"Albacete","zipCode":"02007"}},{"type":"Feature","id":"","geometry":{"type":"Point","coordinates":[-0.2107335,38.5690925]},"properties":{"marker-symbol":"fast-food","name":"Mc Donald's","address":"PLAN PARCIAL, 25","city":"Finestrat","zipCode":"03509"}},{"type":"Feature","id":"","geometry":{"type":"Point","coordinates":[-8.5437066,42.8805643]},"properties":{"marker-symbol":"fast-food","name":"Mc Donald's","address":"Plaza DE ESPAÑA, S/N","city":"Santiago de Compostela","zipCode":"15705"}},{"type":"Feature","id":"","geometry":{"type":"Point","coordinates":[-0.375698,39.474985]},"properties":{"marker-symbol":"fast-food","name":"Mc Donald's","address":"Plaza DE LA REINA, 15","city":"Valencia","zipCode":"46001"}},{"type":"Feature","id":"","geometry":{"type":"Point","coordinates":[-4.5098951,36.6214144]},"properties":{"marker-symbol":"fast-food","name":"Mc Donald's","address":"Plaza DE SOLIMAR, S/N","city":"Benalmádena","zipCode":"29639"}},{"type":"Feature","id":"","geometry":{"type":"Point","coordinates":[-5.6648092,40.9641742]},"properties":{"marker-symbol":"fast-food","name":"Mc Donald's","address":"Plaza DEL CORRILLO, 17","city":"Salamanca","zipCode":"37002"}},{"type":"Feature","id":"","geometry":{"type":"Point","coordinates":[-5.1660907,36.7411281]},"properties":{"marker-symbol":"fast-food","name":"Mc Donald's","address":"Plaza ESPAÑA, 7","city":"Ronda","zipCode":"29400"}},{"type":"Feature","id":"","geometry":{"type":"Point","coordinates":[-3.7092096,40.4177776]},"properties":{"marker-symbol":"fast-food","name":"Mc Donald's","address":"Plaza ISABEL II, 1","city":"Madrid","zipCode":"28013"}},{"type":"Feature","id":"","geometry":{"type":"Point","coordinates":[-3.3667658,40.502113]},"properties":{"marker-symbol":"fast-food","name":"Mc Donald's","address":"Plaza JOSE DE ESPRONCEDA, S/N","city":"Alcalá de Henares","zipCode":"28806"}},{"type":"Feature","id":"","geometry":{"type":"Point","coordinates":[-0.4653109,39.436883]},"properties":{"marker-symbol":"fast-food","name":"Mc Donald's","address":"POL.IND.EL MOLI, S/N","city":"Torrent","zipCode":"46900"}},{"type":"Feature","id":"","geometry":{"type":"Point","coordinates":[-0.5156137,38.9888691]},"properties":{"marker-symbol":"fast-food","name":"Mc Donald's","address":"POLIG. IND. B, PARCELA 24","city":"Xàtiva","zipCode":"46800"}},{"type":"Feature","id":"","geometry":{"type":"Point","coordinates":[-3.6870462,40.4699839]},"properties":{"marker-symbol":"fast-food","name":"Mc Donald's","address":"PSO. CASTELLANA, 261. COMP. LA PAZ","city":"Madrid","zipCode":"28046"}},{"type":"Feature","id":"","geometry":{"type":"Point","coordinates":[-2.4632808,36.8391097]},"properties":{"marker-symbol":"fast-food","name":"Mc Donald's","address":"PSO. DE ALMERIA, 33","city":"Almería","zipCode":"04001"}},{"type":"Feature","id":"","geometry":{"type":"Point","coordinates":[2.1657925,41.3918815]},"properties":{"marker-symbol":"fast-food","name":"Mc Donald's","address":"Pso. DE GRACIA, 48","city":"Barcelona","zipCode":"08007"}},{"type":"Feature","id":"","geometry":{"type":"Point","coordinates":[-5.9952379,37.381716]},"properties":{"marker-symbol":"fast-food","name":"Mc Donald's","address":"PSO. DELICIAS, 5","city":"Sevilla","zipCode":"41001"}},{"type":"Feature","id":"","geometry":{"type":"Point","coordinates":[-4.6243528,36.5390044]},"properties":{"marker-symbol":"fast-food","name":"Mc Donald's","address":"PSO. MARITIMO, S/N - PARCELA 11","city":"Fuengirola","zipCode":"29640"}},{"type":"Feature","id":"","geometry":{"type":"Point","coordinates":[-0.1443359,38.9781273]},"properties":{"marker-symbol":"fast-food","name":"Mc Donald's","address":"Pso. NEPTUNO, 39-40","city":"Gandia","zipCode":"46730"}},{"type":"Feature","id":"","geometry":{"type":"Point","coordinates":[-4.0491077,38.6460074]},"properties":{"marker-symbol":"fast-food","name":"Mc Donald's","address":"PSO. SAN GREGORIO, 15, ESQ. STA.ANA","city":"Puertollano","zipCode":"13500"}},{"type":"Feature","id":"","geometry":{"type":"Point","coordinates":[-5.3161949,35.8882871]},"properties":{"marker-symbol":"fast-food","name":"Mc Donald's","address":"PUEBLO MARINERO, LOCAL 23","city":"Ceuta","zipCode":"51701"}},{"type":"Feature","id":"","geometry":{"type":"Point","coordinates":[-8.7646388,42.5916284]},"properties":{"marker-symbol":"fast-food","name":"Mc Donald's","address":"PUERTO DEPORTIVO","city":"Vilagarcía de Arousa","zipCode":"36600"}},{"type":"Feature","id":"","geometry":{"type":"Point","coordinates":[2.2015347,41.3977365]},"properties":{"marker-symbol":"fast-food","name":"Mc Donald's","address":"PUERTO OLIMPICO, LOCAL 20","city":"Barcelona","zipCode":"08005"}},{"type":"Feature","id":"","geometry":{"type":"Point","coordinates":[2.5381407,39.5219392]},"properties":{"marker-symbol":"fast-food","name":"Mc Donald's","address":"PUNTA DE MARROIG","city":"Calvià","zipCode":"07181"}},{"type":"Feature","id":"","geometry":{"type":"Point","coordinates":[-6.9820186,38.8669861]},"properties":{"marker-symbol":"fast-food","name":"Mc Donald's","address":"PZA. AUTONOMIA, S/N","city":"Badajoz","zipCode":"06011"}},{"type":"Feature","id":"","geometry":{"type":"Point","coordinates":[-3.3635496,40.4819454]},"properties":{"marker-symbol":"fast-food","name":"Mc Donald's","address":"PZA. CERVANTES, 17","city":"Alcalá de Henares","zipCode":"28801"}},{"type":"Feature","id":"","geometry":{"type":"Point","coordinates":[-4.4997494,36.6245302]},"properties":{"marker-symbol":"fast-food","name":"Mc Donald's","address":"PZA. COSTA DEL SOL, 14","city":"Torremolinos","zipCode":"29620"}},{"type":"Feature","id":"","geometry":{"type":"Point","coordinates":[-0.1262071,38.5372128]},"properties":{"marker-symbol":"fast-food","name":"Mc Donald's","address":"PZA. DE LA HISPANIDAD, 33","city":"Benidorm","zipCode":"03500"}},{"type":"Feature","id":"","geometry":{"type":"Point","coordinates":[-4.4207423,36.7182266]},"properties":{"marker-symbol":"fast-food","name":"Mc Donald's","address":"PZA. DE LA MARINA, 2","city":"Málaga","zipCode":"29015"}},{"type":"Feature","id":"","geometry":{"type":"Point","coordinates":[-4.0213361,39.8592091]},"properties":{"marker-symbol":"fast-food","name":"Mc Donald's","address":"PZA. DE ZOCODOVER, 13","city":"Toledo","zipCode":"45001"}},{"type":"Feature","id":"","geometry":{"type":"Point","coordinates":[-3.7168662,40.6060007]},"properties":{"marker-symbol":"fast-food","name":"Mc Donald's","address":"PZA. DEL TORO, S/N","city":"Tres Cantos","zipCode":"28760"}},{"type":"Feature","id":"","geometry":{"type":"Point","coordinates":[-15.4317028,28.1318534]},"properties":{"marker-symbol":"fast-food","name":"Mc Donald's","address":"PZA.VICTORIA, 8 ESQ.MESA Y LOPEZ","city":"Palmas de Gran Canaria (Las)","zipCode":"35006"}},{"type":"Feature","id":"","geometry":{"type":"Point","coordinates":[2.1757278,41.3819518]},"properties":{"marker-symbol":"fast-food","name":"Mc Donald's","address":"RAMBLA DE CAPUCHINOS, 60","city":"Barcelona","zipCode":"08002"}},{"type":"Feature","id":"","geometry":{"type":"Point","coordinates":[1.2535811,41.1148795]},"properties":{"marker-symbol":"fast-food","name":"Mc Donald's","address":"RAMBLA NOVA, 44","city":"Tarragona","zipCode":"43004"}},{"type":"Feature","id":"","geometry":{"type":"Point","coordinates":[-8.3994035,43.3702796]},"properties":{"marker-symbol":"fast-food","name":"Mc Donald's","address":"REAL, 14","city":"Coruña (A)","zipCode":"15003"}},{"type":"Feature","id":"","geometry":{"type":"Point","coordinates":[-5.449177,36.1330656]},"properties":{"marker-symbol":"fast-food","name":"Mc Donald's","address":"REGINO MARTINEZ, 2","city":"ALGECIRAS - LOS BARRIOS","zipCode":"11200"}},{"type":"Feature","id":"","geometry":{"type":"Point","coordinates":[2.1388864,41.3751275]},"properties":{"marker-symbol":"fast-food","name":"Mc Donald's","address":"RENFE. ESTACION CENTRAL SANTS.","city":"Barcelona","zipCode":"08014"}},{"type":"Feature","id":"","geometry":{"type":"Point","coordinates":[-0.9813306,37.6143543]},"properties":{"marker-symbol":"fast-food","name":"Mc Donald's","address":"Ronda Ciudad de la Unión","city":"Cartagena","zipCode":"30205"}},{"type":"Feature","id":"","geometry":{"type":"Point","coordinates":[1.7398396,41.2247572]},"properties":{"marker-symbol":"fast-food","name":"Mc Donald's","address":"RONDA EUROPA, S/N","city":"VILANOVA","zipCode":"08720"}},{"type":"Feature","id":"","geometry":{"type":"Point","coordinates":[-1.6190268,42.7891687]},"properties":{"marker-symbol":"fast-food","name":"Mc Donald's","address":"ROTONDA DE CORDOVILLA, S/N","city":"Galar","zipCode":"31191"}},{"type":"Feature","id":"","geometry":{"type":"Point","coordinates":[-0.4115564,39.4737931]},"properties":{"marker-symbol":"fast-food","name":"Mc Donald's","address":"SAN ANTONIO, S/N","city":"Mislata","zipCode":"46920"}},{"type":"Feature","id":"","geometry":{"type":"Point","coordinates":[-3.7003632,40.4765501]},"properties":{"marker-symbol":"fast-food","name":"Mc Donald's","address":"SAN AQUILINO, 4 LOCAL 1A","city":"Madrid","zipCode":"28029"}},{"type":"Feature","id":"","geometry":{"type":"Point","coordinates":[-4.6376188,36.5956989]},"properties":{"marker-symbol":"fast-food","name":"Mc Donald's","address":"SAN BERNARDO ESQ. SAN CRISTOBAL","city":"Mijas","zipCode":"29650"}},{"type":"Feature","id":"","geometry":{"type":"Point","coordinates":[-3.8819272,40.4011786]},"properties":{"marker-symbol":"fast-food","name":"Mc Donald's","address":"SANTILLANA DEL MAR, 2","city":"Boadilla del Monte","zipCode":"28660"}},{"type":"Feature","id":"","geometry":{"type":"Point","coordinates":[1.8629309,41.7275587]},"properties":{"marker-symbol":"fast-food","name":"Mc Donald's","address":"SECTOR EL TRULLOLS, PARCELA 3","city":"Manresa","zipCode":"08240"}},{"type":"Feature","id":"","geometry":{"type":"Point","coordinates":[2.9089421,39.7113357]},"properties":{"marker-symbol":"fast-food","name":"Mc Donald's","address":"SENCELLES, 73 - 74","city":"Inca","zipCode":"07300"}},{"type":"Feature","id":"","geometry":{"type":"Point","coordinates":[2.1539571,41.4934728]},"properties":{"marker-symbol":"fast-food","name":"Mc Donald's","address":"TARRAGONA, 15-19","city":"Ripollet","zipCode":"08291"}},{"type":"Feature","id":"","geometry":{"type":"Point","coordinates":[-5.8505073,43.3635881]},"properties":{"marker-symbol":"fast-food","name":"Mc Donald's","address":"URIA, 26","city":"Oviedo","zipCode":"33003"}},{"type":"Feature","id":"","geometry":{"type":"Point","coordinates":[-8.7185614,42.2352418]},"properties":{"marker-symbol":"fast-food","name":"Mc Donald's","address":"URZAIZ, 28","city":"Vigo","zipCode":"36204"}},{"type":"Feature","id":"","geometry":{"type":"Point","coordinates":[-0.9195294,41.6520219]},"properties":{"marker-symbol":"fast-food","name":"Mc Donald's","address":"VIA HISPANIDAD, 87 - 89","city":"Zaragoza","zipCode":"50011"}},{"type":"Feature","id":"","geometry":{"type":"Point","coordinates":[-0.3758357,39.4672912]},"properties":{"marker-symbol":"fast-food","name":"Mc Donald's","address":"XATIVA, 21","city":"Valencia","zipCode":"46002"}},{"type":"Feature","id":"","geometry":{"type":"Point","coordinates":[-0.5576023,38.2844309]},"properties":{"marker-symbol":"fast-food","name":"Burger King","address":"AEROPUERTO DE ALICANTE","city":"Alicante/Alacant","zipCode":"03071"}},{"type":"Feature","id":"","geometry":{"type":"Point","coordinates":[-13.6062749,28.9512597]},"properties":{"marker-symbol":"fast-food","name":"Burger King","address":"AEROPUERTO DE LANZAROTE, S/N","city":"San Bartolomé","zipCode":"35550"}},{"type":"Feature","id":"","geometry":{"type":"Point","coordinates":[-4.4929809,36.6748624]},"properties":{"marker-symbol":"fast-food","name":"Burger King","address":"AEROPUERTO DE MALAGA","city":"Málaga","zipCode":"29004"}},{"type":"Feature","id":"","geometry":{"type":"Point","coordinates":[2.7431421,39.5524289]},"properties":{"marker-symbol":"fast-food","name":"Burger King","address":"AEROPUERTO DE PALMA (TERMINAL D)","city":"Palma","zipCode":"07611"}},{"type":"Feature","id":"","geometry":{"type":"Point","coordinates":[-15.3874452,27.9393546]},"properties":{"marker-symbol":"fast-food","name":"Burger King","address":"AEROPUERTO DE TELDE","city":"Telde","zipCode":"35200"}},{"type":"Feature","id":"","geometry":{"type":"Point","coordinates":[-3.6478016,40.4331559]},"properties":{"marker-symbol":"fast-food","name":"Burger King","address":"ALCALA, 320","city":"Madrid","zipCode":"28027"}},{"type":"Feature","id":"","geometry":{"type":"Point","coordinates":[-3.6106577,40.4478358]},"properties":{"marker-symbol":"fast-food","name":"Burger King","address":"ALCALA, 610","city":"Madrid","zipCode":"28022"}},{"type":"Feature","id":"","geometry":{"type":"Point","coordinates":[-3.7003454,40.4166909]},"properties":{"marker-symbol":"fast-food","name":"Burger King","address":"ALCALDE JOSE DISLUMBRADO, 4","city":"Alcorcón","zipCode":"28920"}},{"type":"Feature","id":"","geometry":{"type":"Point","coordinates":[-0.3898719,39.4232324]},"properties":{"marker-symbol":"fast-food","name":"Burger King","address":"ALCALDE JOSE PUENTES, 51","city":"Alfafar","zipCode":"46910"}},{"type":"Feature","id":"","geometry":{"type":"Point","coordinates":[1.3042507,38.9815883]},"properties":{"marker-symbol":"fast-food","name":"Burger King","address":"AMPLE, 3","city":"Sant Antoni de Portmany","zipCode":"07820"}},{"type":"Feature","id":"","geometry":{"type":"Point","coordinates":[-3.7118499,40.3960638]},"properties":{"marker-symbol":"fast-food","name":"Burger King","address":"ANTONIO LOPEZ, 37","city":"Madrid","zipCode":"28019"}},{"type":"Feature","id":"","geometry":{"type":"Point","coordinates":[-3.7051621,40.4169319]},"properties":{"marker-symbol":"fast-food","name":"Burger King","address":"ARENAL, 4","city":"Madrid","zipCode":"28013"}},{"type":"Feature","id":"","geometry":{"type":"Point","coordinates":[-3.7984325,40.43504]},"properties":{"marker-symbol":"fast-food","name":"Burger King","address":"ATENAS, 2","city":"Pozuelo de Alarcón","zipCode":"28224"}},{"type":"Feature","id":"","geometry":{"type":"Point","coordinates":[-3.6998517,40.4126479]},"properties":{"marker-symbol":"fast-food","name":"Burger King","address":"ATOCHA, 44","city":"Madrid","zipCode":"28012"}},{"type":"Feature","id":"","geometry":{"type":"Point","coordinates":[-3.7275649,40.3814409]},"properties":{"marker-symbol":"fast-food","name":"Burger King","address":"Avda. ABRANTES, 44","city":"Madrid","zipCode":"28025"}},{"type":"Feature","id":"","geometry":{"type":"Point","coordinates":[-0.1247034,38.5358619]},"properties":{"marker-symbol":"fast-food","name":"Burger King","address":"Avda. ALCOY, S/N","city":"Benidorm","zipCode":"03500"}},{"type":"Feature","id":"","geometry":{"type":"Point","coordinates":[-6.0450877,37.37057]},"properties":{"marker-symbol":"fast-food","name":"Burger King","address":"Avda. ALJARAFE, S/N","city":"Tomares","zipCode":"41940"}},{"type":"Feature","id":"","geometry":{"type":"Point","coordinates":[-0.3576876,39.4710211]},"properties":{"marker-symbol":"fast-food","name":"Burger King","address":"Avda. ARAGON, 26","city":"Valencia","zipCode":"46021"}},{"type":"Feature","id":"","geometry":{"type":"Point","coordinates":[-0.3489661,39.4738743]},"properties":{"marker-symbol":"fast-food","name":"Burger King","address":"Avda. BLASCO IBAÑEZ, 108","city":"Valencia","zipCode":"46021"}},{"type":"Feature","id":"","geometry":{"type":"Point","coordinates":[-3.6612114,40.436279]},"properties":{"marker-symbol":"fast-food","name":"Burger King","address":"Avda. BRASILIA, 7","city":"Madrid","zipCode":"28028"}},{"type":"Feature","id":"","geometry":{"type":"Point","coordinates":[-3.6641256,40.4372453]},"properties":{"marker-symbol":"fast-food","name":"Burger King","address":"Avda. Bruselas, 23","city":"Madrid","zipCode":"28028"}},{"type":"Feature","id":"","geometry":{"type":"Point","coordinates":[-5.7387788,41.5124322]},"properties":{"marker-symbol":"fast-food","name":"Burger King","address":"Avda. CARDENAL CISNEROS, 56","city":"Zamora","zipCode":"49029"}},{"type":"Feature","id":"","geometry":{"type":"Point","coordinates":[-4.635738,36.5347548]},"properties":{"marker-symbol":"fast-food","name":"Burger King","address":"Avda. CARMEN SAENZ DE TEJADA, S/N","city":"Mijas","zipCode":"29650"}},{"type":"Feature","id":"","geometry":{"type":"Point","coordinates":[-3.6873438,40.4517505]},"properties":{"marker-symbol":"fast-food","name":"Burger King","address":"Avda. CONCHA ESPINA, 10","city":"Madrid","zipCode":"28036"}},{"type":"Feature","id":"","geometry":{"type":"Point","coordinates":[-3.4731298,40.4571648]},"properties":{"marker-symbol":"fast-food","name":"Burger King","address":"Avda. Constitución, 90","city":"Torrejón de Ardoz","zipCode":"28850"}},{"type":"Feature","id":"","geometry":{"type":"Point","coordinates":[-0.4326271,38.3614248]},"properties":{"marker-symbol":"fast-food","name":"Burger King","address":"Avda. COSTABLANCA, 16","city":"Alicante/Alacant","zipCode":"03540"}},{"type":"Feature","id":"","geometry":{"type":"Point","coordinates":[2.6334554,39.5689464]},"properties":{"marker-symbol":"fast-food","name":"Burger King","address":"Avda. DE GABRIEL ROCA, 3","city":"Palma","zipCode":"07002"}},{"type":"Feature","id":"","geometry":{"type":"Point","coordinates":[2.9133962,39.7223882]},"properties":{"marker-symbol":"fast-food","name":"Burger King","address":"Avda. DE LA ALCUDIA, 1","city":"Inca","zipCode":"07300"}},{"type":"Feature","id":"","geometry":{"type":"Point","coordinates":[-3.582248,40.4733272]},"properties":{"marker-symbol":"fast-food","name":"Burger King","address":"Avda. DE LOGROÑO, 337","city":"Madrid","zipCode":"28042"}},{"type":"Feature","id":"","geometry":{"type":"Point","coordinates":[-0.3644343,39.4615424]},"properties":{"marker-symbol":"fast-food","name":"Burger King","address":"Avda. DE PERIS Y VALERO, 166","city":"Valencia","zipCode":"46006"}},{"type":"Feature","id":"","geometry":{"type":"Point","coordinates":[-5.0766276,37.5353827]},"properties":{"marker-symbol":"fast-food","name":"Burger King","address":"Avda. DEL GENIL, S/N","city":"Écija","zipCode":"41400"}},{"type":"Feature","id":"","geometry":{"type":"Point","coordinates":[2.7168714,41.6406938]},"properties":{"marker-symbol":"fast-food","name":"Burger King","address":"Avda. DEL MAR, S/N (HOTEL SANT JORD","city":"Santa Susanna","zipCode":"08398"}},{"type":"Feature","id":"","geometry":{"type":"Point","coordinates":[-3.6740338,40.4070445]},"properties":{"marker-symbol":"fast-food","name":"Burger King","address":"Avda. DEL MEDITERRANEO, 24","city":"Madrid","zipCode":"28007"}},{"type":"Feature","id":"","geometry":{"type":"Point","coordinates":[-0.342919,39.4631837]},"properties":{"marker-symbol":"fast-food","name":"Burger King","address":"Avda. DEL PUERTO, 177","city":"Valencia","zipCode":"46005"}},{"type":"Feature","id":"","geometry":{"type":"Point","coordinates":[-6.291844,36.5313114]},"properties":{"marker-symbol":"fast-food","name":"Burger King","address":"Avda. DEL PUERTO, 2","city":"Cádiz","zipCode":"11006"}},{"type":"Feature","id":"","geometry":{"type":"Point","coordinates":[2.0340946,41.5651296]},"properties":{"marker-symbol":"fast-food","name":"Burger King","address":"Avda. DEL VALLES, 500","city":"Terrassa","zipCode":"08226"}},{"type":"Feature","id":"","geometry":{"type":"Point","coordinates":[-0.481006,38.3452032]},"properties":{"marker-symbol":"fast-food","name":"Burger King","address":"Avda. Doctor Giménez Díaz, s/n (esq","city":"Alicante/Alacant","zipCode":"03505"}},{"type":"Feature","id":"","geometry":{"type":"Point","coordinates":[-3.8508262,40.3481441]},"properties":{"marker-symbol":"fast-food","name":"Burger King","address":"Avda. EUROPA, S/N","city":"Alcorcón","zipCode":"28922"}},{"type":"Feature","id":"","geometry":{"type":"Point","coordinates":[-6.9728518,38.8726583]},"properties":{"marker-symbol":"fast-food","name":"Burger King","address":"Avda. FERNANDO CALZADILLA, 1","city":"Badajoz","zipCode":"06004"}},{"type":"Feature","id":"","geometry":{"type":"Point","coordinates":[-4.4986467,36.623046]},"properties":{"marker-symbol":"fast-food","name":"Burger King","address":"Avda. JESUS SANTOS REIN, 6","city":"Torremolinos","zipCode":"29620"}},{"type":"Feature","id":"","geometry":{"type":"Point","coordinates":[-1.6939132,37.6776579]},"properties":{"marker-symbol":"fast-food","name":"Burger King","address":"Avda. JUAN CARLOS I, 81","city":"Lorca","zipCode":"30800"}},{"type":"Feature","id":"","geometry":{"type":"Point","coordinates":[-4.9714572,36.5114631]},"properties":{"marker-symbol":"fast-food","name":"Burger King","address":"Avda. JULIO IGLESIAS, S/N","city":"Marbella","zipCode":"29660"}},{"type":"Feature","id":"","geometry":{"type":"Point","coordinates":[2.8475835,41.6987848]},"properties":{"marker-symbol":"fast-food","name":"Burger King","address":"Avda. JUST MARLES VILARRODONA, 49","city":"Lloret de Mar","zipCode":"17310"}},{"type":"Feature","id":"","geometry":{"type":"Point","coordinates":[-4.5259639,36.6012514]},"properties":{"marker-symbol":"fast-food","name":"Burger King","address":"Avda. LA CONSTITUCION, 32","city":"Benalmádena","zipCode":"29639"}},{"type":"Feature","id":"","geometry":{"type":"Point","coordinates":[-0.0992112,39.9368185]},"properties":{"marker-symbol":"fast-food","name":"Burger King","address":"Avda. LA MURA, 11","city":"Vila-real","zipCode":"12540"}},{"type":"Feature","id":"","geometry":{"type":"Point","coordinates":[-3.7772853,40.2437037]},"properties":{"marker-symbol":"fast-food","name":"Burger King","address":"Avda. LAGUNAS, 3","city":"Parla","zipCode":"28980"}},{"type":"Feature","id":"","geometry":{"type":"Point","coordinates":[0.1635442,38.7733485]},"properties":{"marker-symbol":"fast-food","name":"Burger King","address":"Avda. LIBERTAD,S/N,EDIF.ARENAL 80","city":"Jávea/Xàbia","zipCode":"03730"}},{"type":"Feature","id":"","geometry":{"type":"Point","coordinates":[-4.4687384,36.7309702]},"properties":{"marker-symbol":"fast-food","name":"Burger King","address":"Avda. Lope de Vega, 8","city":"Málaga","zipCode":"29010"}},{"type":"Feature","id":"","geometry":{"type":"Point","coordinates":[-3.48021,40.310005]},"properties":{"marker-symbol":"fast-food","name":"Burger King","address":"Avda. MADRID, 103","city":"Arganda del Rey","zipCode":"28500"}},{"type":"Feature","id":"","geometry":{"type":"Point","coordinates":[-4.0739924,40.4691877]},"properties":{"marker-symbol":"fast-food","name":"Burger King","address":"Avda. MADRID, 17","city":"CERRO ALARCON, VALDEMORILLO","zipCode":"28210"}},{"type":"Feature","id":"","geometry":{"type":"Point","coordinates":[-16.7044365,28.0263589]},"properties":{"marker-symbol":"fast-food","name":"Burger King","address":"Avda. MARITIMA,S/N, LOS CRISTIANOS","city":"Arona","zipCode":"38640"}},{"type":"Feature","id":"","geometry":{"type":"Point","coordinates":[-0.3769307,39.4691635]},"properties":{"marker-symbol":"fast-food","name":"Burger King","address":"Avda. MARQUES DE SOTELO, 2","city":"Valencia","zipCode":"46002"}},{"type":"Feature","id":"","geometry":{"type":"Point","coordinates":[-4.2835704,36.7148859]},"properties":{"marker-symbol":"fast-food","name":"Burger King","address":"Avda. MEDITERRANEO, 136","city":"Rincón de la Victoria","zipCode":"29730"}},{"type":"Feature","id":"","geometry":{"type":"Point","coordinates":[-3.8597904,40.4752227]},"properties":{"marker-symbol":"fast-food","name":"Burger King","address":"Avda. MIMBRERAS, 2","city":"Majadahonda","zipCode":"28220"}},{"type":"Feature","id":"","geometry":{"type":"Point","coordinates":[-3.7062813,40.4787526]},"properties":{"marker-symbol":"fast-food","name":"Burger King","address":"Avda. MONFORTE DE LEMOS, 107","city":"Madrid","zipCode":"28029"}},{"type":"Feature","id":"","geometry":{"type":"Point","coordinates":[-5.9350795,37.3382435]},"properties":{"marker-symbol":"fast-food","name":"Burger King","address":"Avda. MONTEQUINTO, S/N","city":"Dos Hermanas","zipCode":"41089"}},{"type":"Feature","id":"","geometry":{"type":"Point","coordinates":[-3.7911388,37.7738581]},"properties":{"marker-symbol":"fast-food","name":"Burger King","address":"Avda. Muñoz Grandes, 2 Bajo. Local","city":"Jaén","zipCode":"23007"}},{"type":"Feature","id":"","geometry":{"type":"Point","coordinates":[2.7515001,39.506676]},"properties":{"marker-symbol":"fast-food","name":"Burger King","address":"Avda. NACIONAL, 37","city":"Palma","zipCode":"07600"}},{"type":"Feature","id":"","geometry":{"type":"Point","coordinates":[-3.8889622,40.4060094]},"properties":{"marker-symbol":"fast-food","name":"Burger King","address":"Avda. Nuevo Mundo, 14","city":"Boadilla del Monte","zipCode":"28660"}},{"type":"Feature","id":"","geometry":{"type":"Point","coordinates":[-3.8299106,40.3017902]},"properties":{"marker-symbol":"fast-food","name":"Burger King","address":"Avda. PABLO IGLESIAS, 22-25","city":"NUEVO VERSALLES, FUENLABRADA","zipCode":"28942"}},{"type":"Feature","id":"","geometry":{"type":"Point","coordinates":[2.4479722,39.5371221]},"properties":{"marker-symbol":"fast-food","name":"Burger King","address":"Avda. PAGUERA, 36","city":"Calvià","zipCode":"07160"}},{"type":"Feature","id":"","geometry":{"type":"Point","coordinates":[3.1089341,39.8300618]},"properties":{"marker-symbol":"fast-food","name":"Burger King","address":"Avda. PEDRO MAS Y REUS, 36","city":"Alcúdia","zipCode":"07410"}},{"type":"Feature","id":"","geometry":{"type":"Point","coordinates":[3.1165536,39.8316762]},"properties":{"marker-symbol":"fast-food","name":"Burger King","address":"Avda. PERE MAS I REUS, 2","city":"Alcúdia","zipCode":"07410"}},{"type":"Feature","id":"","geometry":{"type":"Point","coordinates":[-3.8977199,40.3504524]},"properties":{"marker-symbol":"fast-food","name":"Burger King","address":"Avda. QUITAPESARES, S/N","city":"Villaviciosa de Odón","zipCode":"28670"}},{"type":"Feature","id":"","geometry":{"type":"Point","coordinates":[-5.9767155,37.3778215]},"properties":{"marker-symbol":"fast-food","name":"Burger King","address":"Avda. RAMON Y CAJAL, 1","city":"Sevilla","zipCode":"41018"}},{"type":"Feature","id":"","geometry":{"type":"Point","coordinates":[-5.9775048,37.3500452]},"properties":{"marker-symbol":"fast-food","name":"Burger King","address":"Avda. REINO UNIDO, 1","city":"Sevilla","zipCode":"41012"}},{"type":"Feature","id":"","geometry":{"type":"Point","coordinates":[-4.8902407,36.5104359]},"properties":{"marker-symbol":"fast-food","name":"Burger King","address":"Avda. Ricardo Soriano, 32","city":"Marbella","zipCode":"29600"}},{"type":"Feature","id":"","geometry":{"type":"Point","coordinates":[-0.4942308,38.343654]},"properties":{"marker-symbol":"fast-food","name":"Burger King","address":"Avda. SALAMANCA, 4","city":"Alicante/Alacant","zipCode":"03003"}},{"type":"Feature","id":"","geometry":{"type":"Point","coordinates":[-3.5184493,36.7435255]},"properties":{"marker-symbol":"fast-food","name":"Burger King","address":"Avda. SALOBREÑA, 2","city":"Motril","zipCode":"18600"}},{"type":"Feature","id":"","geometry":{"type":"Point","coordinates":[3.8078364,40.0042534]},"properties":{"marker-symbol":"fast-food","name":"Burger King","address":"Avda. SIMON DE OLIVAR, 127","city":"Ciutadella de Menorca","zipCode":"07760"}},{"type":"Feature","id":"","geometry":{"type":"Point","coordinates":[1.4345897,38.911971]},"properties":{"marker-symbol":"fast-food","name":"Burger King","address":"Avda. STA. EULARIA DES RIU, 15","city":"Eivissa","zipCode":"07800"}},{"type":"Feature","id":"","geometry":{"type":"Point","coordinates":[-2.613082,36.7445589]},"properties":{"marker-symbol":"fast-food","name":"Burger King","address":"Avda. SUDAMERICA, 70","city":"EL PUERTO. ROQUETAS DE MAR","zipCode":"04740"}},{"type":"Feature","id":"","geometry":{"type":"Point","coordinates":[-6.0838701,37.3709442]},"properties":{"marker-symbol":"fast-food","name":"Burger King","address":"Avda. UNIVERSIDAD DE SALAMANCA, 8","city":"Bormujos","zipCode":"41930"}},{"type":"Feature","id":"","geometry":{"type":"Point","coordinates":[-0.1445252,38.538982]},"properties":{"marker-symbol":"fast-food","name":"Burger King","address":"Avda. URUGUAY, 1","city":"Benidorm","zipCode":"03500"}},{"type":"Feature","id":"","geometry":{"type":"Point","coordinates":[-4.433644,36.7910683]},"properties":{"marker-symbol":"fast-food","name":"Burger King","address":"Avda. Valle Inclan, s/n. E.S. Repso","city":"Málaga","zipCode":"29011"}},