{"type":"FeatureCollection","features":[{"type":"Feature","id":"","geometry":{"type":"Point","coordinates":[-4.7808095,37.8961896]},"properties":{"marker-symbol":"restaurant","marker-color":"9b59b6","name":"Telepizza","address":"ALCALA ZAMORA, ESQ.ALMOGAVARES","city":"Córdoba","zipCode":"14006"}},{"type":"Feature","id":"","geometry":{"type":"Point","coordinates":[-6.9326236,37.2594908]},"properties":{"marker-symbol":"restaurant","marker-color":"9b59b6","name":"Telepizza","address":"ALCALDE FEDERICO MOLINA, 47","city":"Huelva","zipCode":"21006"}},{"type":"Feature","id":"","geometry":{"type":"Point","coordinates":[-0.3385245,39.469779]},"properties":{"marker-symbol":"restaurant","marker-color":"9b59b6","name":"Telepizza","address":"ALGUER, 23","city":"Valencia","zipCode":"46022"}},{"type":"Feature","id":"","geometry":{"type":"Point","coordinates":[2.1052448,41.3736256]},"properties":{"marker-symbol":"restaurant","marker-color":"9b59b6","name":"Telepizza","address":"AMPURIAS, 37","city":"Hospitalet de Llobregat (L')","zipCode":"08906"}},{"type":"Feature","id":"","geometry":{"type":"Point","coordinates":[-3.3650804,40.4851056]},"properties":{"marker-symbol":"restaurant","marker-color":"9b59b6","name":"Telepizza","address":"ANGEL, 4","city":"Alcalá de Henares","zipCode":"28807"}},{"type":"Feature","id":"","geometry":{"type":"Point","coordinates":[-4.7743365,36.5194999]},"properties":{"marker-symbol":"restaurant","marker-color":"9b59b6","name":"Telepizza","address":"ANTONIO BELON, 26, EDIF.FAROLAS","city":"Marbella","zipCode":"29600"}},{"type":"Feature","id":"","geometry":{"type":"Point","coordinates":[-0.7904639,38.4780341]},"properties":{"marker-symbol":"restaurant","marker-color":"9b59b6","name":"Telepizza","address":"ANTONIO VERA, 26","city":"Elda","zipCode":"03600"}},{"type":"Feature","id":"","geometry":{"type":"Point","coordinates":[-0.6781584,37.9771981]},"properties":{"marker-symbol":"restaurant","marker-color":"9b59b6","name":"Telepizza","address":"APOLO, 26-28","city":"Torrevieja","zipCode":"03190"}},{"type":"Feature","id":"","geometry":{"type":"Point","coordinates":[-0.4871088,38.3725975]},"properties":{"marker-symbol":"restaurant","marker-color":"9b59b6","name":"Telepizza","address":"ARAGON, 2","city":"Alicante/Alacant","zipCode":"03011"}},{"type":"Feature","id":"","geometry":{"type":"Point","coordinates":[-1.6004904,42.0605168]},"properties":{"marker-symbol":"restaurant","marker-color":"9b59b6","name":"Telepizza","address":"ARANAZ Y VIDES, 5-7","city":"Tudela","zipCode":"31500"}},{"type":"Feature","id":"","geometry":{"type":"Point","coordinates":[-0.3972067,39.4632174]},"properties":{"marker-symbol":"restaurant","marker-color":"9b59b6","name":"Telepizza","address":"ARCHIDUQUE CARLOS, 32","city":"Valencia","zipCode":"46019"}},{"type":"Feature","id":"","geometry":{"type":"Point","coordinates":[-2.4288746,42.4631742]},"properties":{"marker-symbol":"restaurant","marker-color":"9b59b6","name":"Telepizza","address":"AVDA DE LA PAZ, 89","city":"Logroño","zipCode":"26004"}},{"type":"Feature","id":"","geometry":{"type":"Point","coordinates":[-5.1015225,37.4861946]},"properties":{"marker-symbol":"restaurant","marker-color":"9b59b6","name":"Telepizza","address":"AVDA DEL GENIL, BLOQUE 13-14","city":"Écija","zipCode":"41400"}},{"type":"Feature","id":"","geometry":{"type":"Point","coordinates":[-3.7275649,40.3814409]},"properties":{"marker-symbol":"restaurant","marker-color":"9b59b6","name":"Telepizza","address":"Avda. ABRANTES, 44","city":"Madrid","zipCode":"28024"}},{"type":"Feature","id":"","geometry":{"type":"Point","coordinates":[-0.6046537,38.8186068]},"properties":{"marker-symbol":"restaurant","marker-color":"9b59b6","name":"Telepizza","address":"Avda. ALMAIG, 23-25","city":"Ontinyent","zipCode":"46870"}},{"type":"Feature","id":"","geometry":{"type":"Point","coordinates":[-4.43119,36.7161123]},"properties":{"marker-symbol":"restaurant","marker-color":"9b59b6","name":"Telepizza","address":"Avda. AURORA,S/N","city":"Málaga","zipCode":"29002"}},{"type":"Feature","id":"","geometry":{"type":"Point","coordinates":[2.0812289,41.5574545]},"properties":{"marker-symbol":"restaurant","marker-color":"9b59b6","name":"Telepizza","address":"Avda. BUDAPEST, 61. ESQ.ESTRASBURGO","city":"Sabadell","zipCode":"08206"}},{"type":"Feature","id":"","geometry":{"type":"Point","coordinates":[-4.775674,37.8745534]},"properties":{"marker-symbol":"restaurant","marker-color":"9b59b6","name":"Telepizza","address":"Avda. CADIZ, 1","city":"Córdoba","zipCode":"14009"}},{"type":"Feature","id":"","geometry":{"type":"Point","coordinates":[-3.8272058,40.2495404]},"properties":{"marker-symbol":"restaurant","marker-color":"9b59b6","name":"Telepizza","address":"Avda. CAMPO HERMOSO, 11-13","city":"Humanes de Madrid","zipCode":"28970"}},{"type":"Feature","id":"","geometry":{"type":"Point","coordinates":[0.0588418,40.0524093]},"properties":{"marker-symbol":"restaurant","marker-color":"9b59b6","name":"Telepizza","address":"Avda. CASTELLON, 62","city":"Benicasim/Benicàssim","zipCode":"12650"}},{"type":"Feature","id":"","geometry":{"type":"Point","coordinates":[0.7851969,40.6602883]},"properties":{"marker-symbol":"restaurant","marker-color":"9b59b6","name":"Telepizza","address":"Avda. CATALUÑA, 37","city":"Amposta","zipCode":"43870"}},{"type":"Feature","id":"","geometry":{"type":"Point","coordinates":[-6.0803177,37.3890777]},"properties":{"marker-symbol":"restaurant","marker-color":"9b59b6","name":"Telepizza","address":"Avda. COLON, 1","city":"Gines","zipCode":"41960"}},{"type":"Feature","id":"","geometry":{"type":"Point","coordinates":[-3.2181477,39.3177867]},"properties":{"marker-symbol":"restaurant","marker-color":"9b59b6","name":"Telepizza","address":"Avda. CONSTITUCION, S/N, LOCAL 5","city":"Alcázar de San Juan","zipCode":"13600"}},{"type":"Feature","id":"","geometry":{"type":"Point","coordinates":[0.4224867,40.412831]},"properties":{"marker-symbol":"restaurant","marker-color":"9b59b6","name":"Telepizza","address":"Avda. CORTES VALENCIANAS, 21","city":"Benicarló","zipCode":"12580"}},{"type":"Feature","id":"","geometry":{"type":"Point","coordinates":[-3.7967345,37.7774826]},"properties":{"marker-symbol":"restaurant","marker-color":"9b59b6","name":"Telepizza","address":"Avda. DE ANDALUCIA, 45","city":"Jaén","zipCode":"23006"}},{"type":"Feature","id":"","geometry":{"type":"Point","coordinates":[-4.7641714,37.8876241]},"properties":{"marker-symbol":"restaurant","marker-color":"9b59b6","name":"Telepizza","address":"Avda. DE BARCELONA, 20 BAJO","city":"Córdoba","zipCode":"14010"}},{"type":"Feature","id":"","geometry":{"type":"Point","coordinates":[-5.6461288,43.5384602]},"properties":{"marker-symbol":"restaurant","marker-color":"9b59b6","name":"Telepizza","address":"Avda. DE CASTILLA, 29","city":"Gijón","zipCode":"33203"}},{"type":"Feature","id":"","geometry":{"type":"Point","coordinates":[-3.8553507,40.3570031]},"properties":{"marker-symbol":"restaurant","marker-color":"9b59b6","name":"Telepizza","address":"Avda. DE LOS CANTOS, ESQ. CORDOBA","city":"Alcorcón","zipCode":"28922"}},{"type":"Feature","id":"","geometry":{"type":"Point","coordinates":[-0.9177142,41.650722]},"properties":{"marker-symbol":"restaurant","marker-color":"9b59b6","name":"Telepizza","address":"Avda. DE MADRID, 222","city":"Zaragoza","zipCode":"50010"}},{"type":"Feature","id":"","geometry":{"type":"Point","coordinates":[-4.2881346,36.715423]},"properties":{"marker-symbol":"restaurant","marker-color":"9b59b6","name":"Telepizza","address":"Avda. DEL MEDITERRANEO, 60","city":"Rincón de la Victoria","zipCode":"29730"}},{"type":"Feature","id":"","geometry":{"type":"Point","coordinates":[-3.8769914,40.4052478]},"properties":{"marker-symbol":"restaurant","marker-color":"9b59b6","name":"Telepizza","address":"Avda. DEL NUEVO MUNDO, 5, LOCAL 4","city":"Boadilla del Monte","zipCode":"28660"}},{"type":"Feature","id":"","geometry":{"type":"Point","coordinates":[-6.6021911,42.5473427]},"properties":{"marker-symbol":"restaurant","marker-color":"9b59b6","name":"Telepizza","address":"Avda. ESPAÑA, 39","city":"Ponferrada","zipCode":"24400"}},{"type":"Feature","id":"","geometry":{"type":"Point","coordinates":[-5.9962951,37.38264]},"properties":{"marker-symbol":"restaurant","marker-color":"9b59b6","name":"Telepizza","address":"Avda. ESPAÑA, S/N,ACUARIO, LOC. 8D","city":"Dos Hermanas","zipCode":"41700"}},{"type":"Feature","id":"","geometry":{"type":"Point","coordinates":[-3.7003454,40.4166909]},"properties":{"marker-symbol":"restaurant","marker-color":"9b59b6","name":"Telepizza","address":"Avda. ESTADOS, ESQ. LA HABANA, L. 4","city":"Fuenlabrada","zipCode":"28940"}},{"type":"Feature","id":"","geometry":{"type":"Point","coordinates":[-0.1204572,38.5380869]},"properties":{"marker-symbol":"restaurant","marker-color":"9b59b6","name":"Telepizza","address":"Avda. EUROPA, 9","city":"Benidorm","zipCode":"03500"}},{"type":"Feature","id":"","geometry":{"type":"Point","coordinates":[-2.457994,36.8445843]},"properties":{"marker-symbol":"restaurant","marker-color":"9b59b6","name":"Telepizza","address":"Avda. FEDERICO GARCIA LORCA, 170","city":"Almería","zipCode":"04005"}},{"type":"Feature","id":"","geometry":{"type":"Point","coordinates":[-2.462216,36.835051]},"properties":{"marker-symbol":"restaurant","marker-color":"9b59b6","name":"Telepizza","address":"Avda. FEDERICO GARCIA LORCA, 2","city":"Almería","zipCode":"04004"}},{"type":"Feature","id":"","geometry":{"type":"Point","coordinates":[-8.4120235,43.3647668]},"properties":{"marker-symbol":"restaurant","marker-color":"9b59b6","name":"Telepizza","address":"Avda. Finisterre, 72","city":"Arteixo","zipCode":"15142"}},{"type":"Feature","id":"","geometry":{"type":"Point","coordinates":[1.9767745,41.2803885]},"properties":{"marker-symbol":"restaurant","marker-color":"9b59b6","name":"Telepizza","address":"Avda. Habana Vieja, 3, esquina C/ M","city":"Castelldefels","zipCode":"08860"}},{"type":"Feature","id":"","geometry":{"type":"Point","coordinates":[-3.6892384,36.7357484]},"properties":{"marker-symbol":"restaurant","marker-color":"9b59b6","name":"Telepizza","address":"Avda. JUAN CARLOS I, 23","city":"Almuñécar","zipCode":"18690"}},{"type":"Feature","id":"","geometry":{"type":"Point","coordinates":[-0.674563,38.1323588]},"properties":{"marker-symbol":"restaurant","marker-color":"9b59b6","name":"Telepizza","address":"Avda. JUAN CARLOS I, 9","city":"Elche/Elx","zipCode":"03202"}},{"type":"Feature","id":"","geometry":{"type":"Point","coordinates":[-4.9143239,41.3565893]},"properties":{"marker-symbol":"restaurant","marker-color":"9b59b6","name":"Telepizza","address":"Avda. LOPE DE VEGA, 39 BIS","city":"Medina del Campo","zipCode":"47400"}},{"type":"Feature","id":"","geometry":{"type":"Point","coordinates":[-3.6065899,37.190297]},"properties":{"marker-symbol":"restaurant","marker-color":"9b59b6","name":"Telepizza","address":"Avda. MADRID, 23-25","city":"Granada","zipCode":"18012"}},{"type":"Feature","id":"","geometry":{"type":"Point","coordinates":[-4.4471459,36.6995488]},"properties":{"marker-symbol":"restaurant","marker-color":"9b59b6","name":"Telepizza","address":"Avda. MANUEL TORRES, 1","city":"Málaga","zipCode":"29003"}},{"type":"Feature","id":"","geometry":{"type":"Point","coordinates":[-5.8458674,37.3513925]},"properties":{"marker-symbol":"restaurant","marker-color":"9b59b6","name":"Telepizza","address":"Avda. MEDITERRANEO, 4","city":"Alcalá de Guadaíra","zipCode":"41500"}},{"type":"Feature","id":"","geometry":{"type":"Point","coordinates":[-0.2139792,39.6589289]},"properties":{"marker-symbol":"restaurant","marker-color":"9b59b6","name":"Telepizza","address":"Avda. MEDITERRANEO, 49","city":"Sagunto/Sagunt","zipCode":"46520"}},{"type":"Feature","id":"","geometry":{"type":"Point","coordinates":[-0.4858632,38.3598274]},"properties":{"marker-symbol":"restaurant","marker-color":"9b59b6","name":"Telepizza","address":"Avda. PINTOR BAEZA, 1","city":"Alicante/Alacant","zipCode":"03010"}},{"type":"Feature","id":"","geometry":{"type":"Point","coordinates":[-0.3640639,39.4849524]},"properties":{"marker-symbol":"restaurant","marker-color":"9b59b6","name":"Telepizza","address":"Avda. PRIMADO REIG, 111","city":"Valencia","zipCode":"46020"}},{"type":"Feature","id":"","geometry":{"type":"Point","coordinates":[-0.3566296,39.4794358]},"properties":{"marker-symbol":"restaurant","marker-color":"9b59b6","name":"Telepizza","address":"Avda. PRIMADO REIG, 185","city":"Valencia","zipCode":"46020"}},{"type":"Feature","id":"","geometry":{"type":"Point","coordinates":[-3.4044187,40.4678254]},"properties":{"marker-symbol":"restaurant","marker-color":"9b59b6","name":"Telepizza","address":"Avda. REYES CATOLICOS, 1 LOCAL","city":"Alcalá de Henares","zipCode":"28803"}},{"type":"Feature","id":"","geometry":{"type":"Point","coordinates":[-3.8585194,40.3276796]},"properties":{"marker-symbol":"restaurant","marker-color":"9b59b6","name":"Telepizza","address":"BADAJOZ, 28","city":"Móstoles","zipCode":"28931"}},{"type":"Feature","id":"","geometry":{"type":"Point","coordinates":[2.1341831,41.3671869]},"properties":{"marker-symbol":"restaurant","marker-color":"9b59b6","name":"Telepizza","address":"BADAL, 34-36","city":"Barcelona","zipCode":"08014"}},{"type":"Feature","id":"","geometry":{"type":"Point","coordinates":[-3.8573085,40.3312839]},"properties":{"marker-symbol":"restaurant","marker-color":"9b59b6","name":"Telepizza","address":"BECQUER, 1","city":"Móstoles","zipCode":"28932"}},{"type":"Feature","id":"","geometry":{"type":"Point","coordinates":[-3.7041365,40.4344995]},"properties":{"marker-symbol":"restaurant","marker-color":"9b59b6","name":"Telepizza","address":"BRAVO MURILLO, 8","city":"Madrid","zipCode":"28015"}},{"type":"Feature","id":"","geometry":{"type":"Point","coordinates":[-8.2240321,43.4830933]},"properties":{"marker-symbol":"restaurant","marker-color":"9b59b6","name":"Telepizza","address":"C.C. IDEOCIO ODEON, LOCAL 29","city":"Ferrol","zipCode":"15403"}},{"type":"Feature","id":"","geometry":{"type":"Point","coordinates":[-3.9164585,39.8639609]},"properties":{"marker-symbol":"restaurant","marker-color":"9b59b6","name":"Telepizza","address":"C.C. Luz del Tajo, local 202. Avda.","city":"Toledo","zipCode":"45007"}},{"type":"Feature","id":"","geometry":{"type":"Point","coordinates":[-3.9202906,40.2688395]},"properties":{"marker-symbol":"restaurant","marker-color":"9b59b6","name":"Telepizza","address":"C.C. XANADU F.C.,LOCAL 4","city":"Arroyomolinos","zipCode":"28939"}},{"type":"Feature","id":"","geometry":{"type":"Point","coordinates":[-4.7234945,41.6571483]},"properties":{"marker-symbol":"restaurant","marker-color":"9b59b6","name":"Telepizza","address":"CADENAS DE SAN GREGORIO","city":"Valladolid","zipCode":"47011"}},{"type":"Feature","id":"","geometry":{"type":"Point","coordinates":[-3.7003454,40.4166909]},"properties":{"marker-symbol":"restaurant","marker-color":"9b59b6","name":"Telepizza","address":"CAMILO JOSE CELA, ESQ.VICENTE ALEXA","city":"Rozas de Madrid (Las)","zipCode":"28230"}},{"type":"Feature","id":"","geometry":{"type":"Point","coordinates":[-4.8397771,39.96339]},"properties":{"marker-symbol":"restaurant","marker-color":"9b59b6","name":"Telepizza","address":"CAÑADA DE LA SIERRA, S/N","city":"Talavera de la Reina","zipCode":"45600"}},{"type":"Feature","id":"","geometry":{"type":"Point","coordinates":[-3.642048,38.1125918]},"properties":{"marker-symbol":"restaurant","marker-color":"9b59b6","name":"Telepizza","address":"CANOVAS DEL CASTILLO ESQ.RAMON CAJA","city":"Linares","zipCode":"23700"}},{"type":"Feature","id":"","geometry":{"type":"Point","coordinates":[-3.0339532,43.3311728]},"properties":{"marker-symbol":"restaurant","marker-color":"9b59b6","name":"Telepizza","address":"CAPITAN MENDIZABAL, 13","city":"Santurtzi","zipCode":"48980"}},{"type":"Feature","id":"","geometry":{"type":"Point","coordinates":[2.1255749,41.3984994]},"properties":{"marker-symbol":"restaurant","marker-color":"9b59b6","name":"Telepizza","address":"CARAVELLA LA NIÑA, 19 ( SARRIA )","city":"Barcelona","zipCode":"08017"}},{"type":"Feature","id":"","geometry":{"type":"Point","coordinates":[-0.3892954,39.44898]},"properties":{"marker-symbol":"restaurant","marker-color":"9b59b6","name":"Telepizza","address":"CARTEROS, 73","city":"Valencia","zipCode":"46017"}},{"type":"Feature","id":"","geometry":{"type":"Point","coordinates":[-0.0279867,40.0120227]},"properties":{"marker-symbol":"restaurant","marker-color":"9b59b6","name":"Telepizza","address":"CATALUÑA, ESQUINA CONCEPCION ARENAL","city":"Castellón de la Plana/Castelló de l","zipCode":"12004"}},{"type":"Feature","id":"","geometry":{"type":"Point","coordinates":[-3.7106024,40.4389013]},"properties":{"marker-symbol":"restaurant","marker-color":"9b59b6","name":"Telepizza","address":"CEA BERMUDEZ, 38","city":"Madrid","zipCode":"28003"}},{"type":"Feature","id":"","geometry":{"type":"Point","coordinates":[-7.862046,42.3438672]},"properties":{"marker-symbol":"restaurant","marker-color":"9b59b6","name":"Telepizza","address":"CELSO EMILIO FERREIRO, 2","city":"Ourense","zipCode":"32004"}},{"type":"Feature","id":"","geometry":{"type":"Point","coordinates":[-5.8570867,43.3638868]},"properties":{"marker-symbol":"restaurant","marker-color":"9b59b6","name":"Telepizza","address":"CERVANTES, 33","city":"Oviedo","zipCode":"33004"}},{"type":"Feature","id":"","geometry":{"type":"Point","coordinates":[-8.6516968,42.4313443]},"properties":{"marker-symbol":"restaurant","marker-color":"9b59b6","name":"Telepizza","address":"COLON, 15","city":"Pontevedra","zipCode":"36002"}},{"type":"Feature","id":"","geometry":{"type":"Point","coordinates":[-6.2847508,36.5195712]},"properties":{"marker-symbol":"restaurant","marker-color":"9b59b6","name":"Telepizza","address":"CONDESA VILLAFUENTE BERMEJA, 11","city":"Cádiz","zipCode":"11008"}},{"type":"Feature","id":"","geometry":{"type":"Point","coordinates":[2.1180208,41.5278292]},"properties":{"marker-symbol":"restaurant","marker-color":"9b59b6","name":"Telepizza","address":"Ctra. BARCELONA, 558","city":"Sabadell","zipCode":"08204"}},{"type":"Feature","id":"","geometry":{"type":"Point","coordinates":[2.1484844,41.4930646]},"properties":{"marker-symbol":"restaurant","marker-color":"9b59b6","name":"Telepizza","address":"Ctra. DE BARCELONA, 126","city":"Cerdanyola del Vallès","zipCode":"08290"}},{"type":"Feature","id":"","geometry":{"type":"Point","coordinates":[2.0860572,41.3745858]},"properties":{"marker-symbol":"restaurant","marker-color":"9b59b6","name":"Telepizza","address":"Ctra. DE CORNELLA, 55-59","city":"Esplugues de Llobregat","zipCode":"08950"}},{"type":"Feature","id":"","geometry":{"type":"Point","coordinates":[-16.2960631,28.446591]},"properties":{"marker-symbol":"restaurant","marker-color":"9b59b6","name":"Telepizza","address":"Ctra. GRAL. DEL ROSARIO, 183","city":"San Cristóbal de La Laguna","zipCode":"38108"}},{"type":"Feature","id":"","geometry":{"type":"Point","coordinates":[1.9653486,41.4564966]},"properties":{"marker-symbol":"restaurant","marker-color":"9b59b6","name":"Telepizza","address":"Ctra. Msrtorell, 11 - bajos","city":"Sant Andreu de la Barca","zipCode":"08740"}},{"type":"Feature","id":"","geometry":{"type":"Point","coordinates":[1.8319631,41.729923]},"properties":{"marker-symbol":"restaurant","marker-color":"9b59b6","name":"Telepizza","address":"Ctra. VIC, 113","city":"Manresa","zipCode":"08240"}},{"type":"Feature","id":"","geometry":{"type":"Point","coordinates":[-3.3855816,38.758629]},"properties":{"marker-symbol":"restaurant","marker-color":"9b59b6","name":"Telepizza","address":"DEL CRISTO, 5-7","city":"Valdepeñas","zipCode":"13300"}},{"type":"Feature","id":"","geometry":{"type":"Point","coordinates":[-3.6740068,40.4024609]},"properties":{"marker-symbol":"restaurant","marker-color":"9b59b6","name":"Telepizza","address":"DOCTOR ESQUERDO, 170","city":"Madrid","zipCode":"28007"}},{"type":"Feature","id":"","geometry":{"type":"Point","coordinates":[-3.6693288,40.4158598]},"properties":{"marker-symbol":"restaurant","marker-color":"9b59b6","name":"Telepizza","address":"DOCTOR ESQUERDO, 99","city":"Madrid","zipCode":"28007"}},{"type":"Feature","id":"","geometry":{"type":"Point","coordinates":[-2.4508055,42.4610988]},"properties":{"marker-symbol":"restaurant","marker-color":"9b59b6","name":"Telepizza","address":"DOCTOR MUGICA, 17-19","city":"Logroño","zipCode":"26005"}},{"type":"Feature","id":"","geometry":{"type":"Point","coordinates":[-3.7592603,40.3283504]},"properties":{"marker-symbol":"restaurant","marker-color":"9b59b6","name":"Telepizza","address":"DR.MARTIN VEGUE, 28","city":"Leganés","zipCode":"28912"}},{"type":"Feature","id":"","geometry":{"type":"Point","coordinates":[-5.4535998,36.1343535]},"properties":{"marker-symbol":"restaurant","marker-color":"9b59b6","name":"Telepizza","address":"EDIFICIO ALBACORA, S/N,CTRA.MALAGA","city":"Algeciras","zipCode":"11203"}},{"type":"Feature","id":"","geometry":{"type":"Point","coordinates":[-6.9852823,38.8584262]},"properties":{"marker-symbol":"restaurant","marker-color":"9b59b6","name":"Telepizza","address":"EL ALMENDRO, 8","city":"Badajoz","zipCode":"06008"}},{"type":"Feature","id":"","geometry":{"type":"Point","coordinates":[-4.0160607,40.2889958]},"properties":{"marker-symbol":"restaurant","marker-color":"9b59b6","name":"Telepizza","address":"EL ESCORIAL, 31","city":"Navalcarnero","zipCode":"28600"}},{"type":"Feature","id":"","geometry":{"type":"Point","coordinates":[-7.8776023,42.3342916]},"properties":{"marker-symbol":"restaurant","marker-color":"9b59b6","name":"Telepizza","address":"ERVEDELO, ESQ. DALI","city":"Ourense","zipCode":"32002"}},{"type":"Feature","id":"","geometry":{"type":"Point","coordinates":[-3.6449639,40.4305334]},"properties":{"marker-symbol":"restaurant","marker-color":"9b59b6","name":"Telepizza","address":"EZEQUIEL SOLANA, 50","city":"Madrid","zipCode":"28017"}},{"type":"Feature","id":"","geometry":{"type":"Point","coordinates":[2.6605399,39.576516]},"properties":{"marker-symbol":"restaurant","marker-color":"9b59b6","name":"Telepizza","address":"FAUST MORELL, 3","city":"Palma","zipCode":"07005"}},{"type":"Feature","id":"","geometry":{"type":"Point","coordinates":[-4.0388918,43.3451802]},"properties":{"marker-symbol":"restaurant","marker-color":"9b59b6","name":"Telepizza","address":"FDEZ. VALLEJO,1 ESQ.AUGUSTO LINARES","city":"Torrelavega","zipCode":"39300"}},{"type":"Feature","id":"","geometry":{"type":"Point","coordinates":[-4.5411696,36.6020344]},"properties":{"marker-symbol":"restaurant","marker-color":"9b59b6","name":"Telepizza","address":"FEDERICO GARCIA LORCA, 25, LOCAL 15","city":"Benalmádena","zipCode":"29631"}},{"type":"Feature","id":"","geometry":{"type":"Point","coordinates":[-5.5684226,42.5895833]},"properties":{"marker-symbol":"restaurant","marker-color":"9b59b6","name":"Telepizza","address":"FRAY LUIS DE LEON, 20","city":"León","zipCode":"24005"}},{"type":"Feature","id":"","geometry":{"type":"Point","coordinates":[-3.6333355,40.4054124]},"properties":{"marker-symbol":"restaurant","marker-color":"9b59b6","name":"Telepizza","address":"FUENTE CARRANTONA, 19-21","city":"Madrid","zipCode":"28030"}},{"type":"Feature","id":"","geometry":{"type":"Point","coordinates":[-2.842268,43.2320554]},"properties":{"marker-symbol":"restaurant","marker-color":"9b59b6","name":"Telepizza","address":"GANEKOGORTA, 11","city":"Galdakao","zipCode":"48960"}},{"type":"Feature","id":"","geometry":{"type":"Point","coordinates":[2.6894543,41.6275068]},"properties":{"marker-symbol":"restaurant","marker-color":"9b59b6","name":"Telepizza","address":"GARBI, 127-129 - LOCAL 3","city":"Pineda de Mar","zipCode":"08397"}},{"type":"Feature","id":"","geometry":{"type":"Point","coordinates":[2.1773037,41.4377557]},"properties":{"marker-symbol":"restaurant","marker-color":"9b59b6","name":"Telepizza","address":"GARROFERS, 49-53","city":"Barcelona","zipCode":"08016"}},{"type":"Feature","id":"","geometry":{"type":"Point","coordinates":[-0.392917,39.4874102]},"properties":{"marker-symbol":"restaurant","marker-color":"9b59b6","name":"Telepizza","address":"GENERAL AVILES, 20","city":"Valencia","zipCode":"46015"}},{"type":"Feature","id":"","geometry":{"type":"Point","coordinates":[-16.2626019,28.4680375]},"properties":{"marker-symbol":"restaurant","marker-color":"9b59b6","name":"Telepizza","address":"GENERAL MOLA, 6","city":"Santa Cruz de Tenerife","zipCode":"38006"}},{"type":"Feature","id":"","geometry":{"type":"Point","coordinates":[-3.7171321,40.3972643]},"properties":{"marker-symbol":"restaurant","marker-color":"9b59b6","name":"Telepizza","address":"GENERAL RICARDOS, 8","city":"Madrid","zipCode":"28019"}},{"type":"Feature","id":"","geometry":{"type":"Point","coordinates":[-2.9925347,43.294239]},"properties":{"marker-symbol":"restaurant","marker-color":"9b59b6","name":"Telepizza","address":"GERNIKAKO ARBOLA, 19","city":"Barakaldo","zipCode":"48902"}},{"type":"Feature","id":"","geometry":{"type":"Point","coordinates":[-6.9747829,38.8715172]},"properties":{"marker-symbol":"restaurant","marker-color":"9b59b6","name":"Telepizza","address":"GRAL. MANUEL SAAVEDRA PALMEIRO","city":"Badajoz","zipCode":"06003"}},{"type":"Feature","id":"","geometry":{"type":"Point","coordinates":[2.1565771,41.3988094]},"properties":{"marker-symbol":"restaurant","marker-color":"9b59b6","name":"Telepizza","address":"GRAN DE GRACIA, 35","city":"Barcelona","zipCode":"08012"}},{"type":"Feature","id":"","geometry":{"type":"Point","coordinates":[-3.5999363,37.1802026]},"properties":{"marker-symbol":"restaurant","marker-color":"9b59b6","name":"Telepizza","address":"GRAN VIA DE COLON, 40","city":"Granada","zipCode":"18010"}},{"type":"Feature","id":"","geometry":{"type":"Point","coordinates":[-0.4950746,38.3761065]},"properties":{"marker-symbol":"restaurant","marker-color":"9b59b6","name":"Telepizza","address":"GRANADA, ESQUINA C/ SORIA, 6","city":"Alicante/Alacant","zipCode":"03011"}},{"type":"Feature","id":"","geometry":{"type":"Point","coordinates":[-6.0327963,37.3351522]},"properties":{"marker-symbol":"restaurant","marker-color":"9b59b6","name":"Telepizza","address":"GUADALQUIVIR, 30","city":"Mairena del Aljarafe","zipCode":"41297"}},{"type":"Feature","id":"","geometry":{"type":"Point","coordinates":[-0.820476,38.2299914]},"properties":{"marker-symbol":"restaurant","marker-color":"9b59b6","name":"Telepizza","address":"GUTIERREZ CARDENAS, 10","city":"Crevillent","zipCode":"03330"}},{"type":"Feature","id":"","geometry":{"type":"Point","coordinates":[-4.4341558,36.7193947]},"properties":{"marker-symbol":"restaurant","marker-color":"9b59b6","name":"Telepizza","address":"HILERA, 13","city":"Málaga","zipCode":"29007"}},{"type":"Feature","id":"","geometry":{"type":"Point","coordinates":[-3.8692863,40.3190474]},"properties":{"marker-symbol":"restaurant","marker-color":"9b59b6","name":"Telepizza","address":"HUESCA, 14","city":"Móstoles","zipCode":"28934"}},{"type":"Feature","id":"","geometry":{"type":"Point","coordinates":[2.5941239,39.5868256]},"properties":{"marker-symbol":"restaurant","marker-color":"9b59b6","name":"Telepizza","address":"INDUSTRIA, 9, MOLINO I","city":"Palma","zipCode":"07013"}},{"type":"Feature","id":"","geometry":{"type":"Point","coordinates":[-2.9107089,43.252252]},"properties":{"marker-symbol":"restaurant","marker-color":"9b59b6","name":"Telepizza","address":"Iturriaga, 65","city":"Bilbao","zipCode":"48004"}},{"type":"Feature","id":"","geometry":{"type":"Point","coordinates":[1.9276824,41.4735514]},"properties":{"marker-symbol":"restaurant","marker-color":"9b59b6","name":"Telepizza","address":"JACINT VERDAGUER, LOCAL 7-9","city":"Martorell","zipCode":"08760"}},{"type":"Feature","id":"","geometry":{"type":"Point","coordinates":[-2.9292116,43.2501679]},"properties":{"marker-symbol":"restaurant","marker-color":"9b59b6","name":"Telepizza","address":"JARDINES DE GUERNIKA, 6","city":"Bilbao","zipCode":"48011"}},{"type":"Feature","id":"","geometry":{"type":"Point","coordinates":[-5.1678296,36.7451335]},"properties":{"marker-symbol":"restaurant","marker-color":"9b59b6","name":"Telepizza","address":"JEREZ, 9","city":"Ronda","zipCode":"29400"}},{"type":"Feature","id":"","geometry":{"type":"Point","coordinates":[-0.7050837,38.2668259]},"properties":{"marker-symbol":"restaurant","marker-color":"9b59b6","name":"Telepizza","address":"JORGE JUAN, 31","city":"Elche/Elx","zipCode":"03201"}},{"type":"Feature","id":"","geometry":{"type":"Point","coordinates":[-6.1306908,36.6911476]},"properties":{"marker-symbol":"restaurant","marker-color":"9b59b6","name":"Telepizza","address":"JOSE CADIZ SALVATIERRA, 3","city":"Jerez de la Frontera","zipCode":"11405"}},{"type":"Feature","id":"","geometry":{"type":"Point","coordinates":[-1.6317552,42.831781]},"properties":{"marker-symbol":"restaurant","marker-color":"9b59b6","name":"Telepizza","address":"JOSE MIGUEL MADOZ, 6","city":"Pamplona/Iruña","zipCode":"31015"}},{"type":"Feature","id":"","geometry":{"type":"Point","coordinates":[-2.6799042,43.3088778]},"properties":{"marker-symbol":"restaurant","marker-color":"9b59b6","name":"Telepizza","address":"JUAN CALZADA, 75","city":"Gernika-Lumo","zipCode":"48300"}},{"type":"Feature","id":"","geometry":{"type":"Point","coordinates":[-4.1441518,40.5916494]},"properties":{"marker-symbol":"restaurant","marker-color":"9b59b6","name":"Telepizza","address":"JUAN DE TOLEDO,5(EST.AUTOBUSES)","city":"San Lorenzo de El Escorial","zipCode":"28200"}},{"type":"Feature","id":"","geometry":{"type":"Point","coordinates":[-7.0224035,37.2702817]},"properties":{"marker-symbol":"restaurant","marker-color":"9b59b6","name":"Telepizza","address":"LA FUENTE, 27","city":"Aljaraque","zipCode":"21110"}},{"type":"Feature","id":"","geometry":{"type":"Point","coordinates":[-5.900424,43.5472506]},"properties":{"marker-symbol":"restaurant","marker-color":"9b59b6","name":"Telepizza","address":"LA ÑORA, 2","city":"Avilés","zipCode":"33400"}},{"type":"Feature","id":"","geometry":{"type":"Point","coordinates":[-0.4114193,39.51468]},"properties":{"marker-symbol":"restaurant","marker-color":"9b59b6","name":"Telepizza","address":"LAURI VOLPI, 15","city":"Burjassot","zipCode":"46100"}},{"type":"Feature","id":"","geometry":{"type":"Point","coordinates":[-2.8876211,43.2373468]},"properties":{"marker-symbol":"restaurant","marker-color":"9b59b6","name":"Telepizza","address":"LEHENDAKARI AGUIRRE, 33","city":"Basauri","zipCode":"48970"}},{"type":"Feature","id":"","geometry":{"type":"Point","coordinates":[-15.419905,28.1128958]},"properties":{"marker-symbol":"restaurant","marker-color":"9b59b6","name":"Telepizza","address":"LEON Y CASTILLO, 71","city":"Palmas de Gran Canaria (Las)","zipCode":"35003"}},{"type":"Feature","id":"","geometry":{"type":"Point","coordinates":[-3.7276643,40.3140531]},"properties":{"marker-symbol":"restaurant","marker-color":"9b59b6","name":"Telepizza","address":"MADRID, 125","city":"Getafe","zipCode":"28903"}},{"type":"Feature","id":"","geometry":{"type":"Point","coordinates":[-4.7618292,41.6361453]},"properties":{"marker-symbol":"restaurant","marker-color":"9b59b6","name":"Telepizza","address":"MANUEL AZAÑA, 55","city":"Valladolid","zipCode":"47014"}},{"type":"Feature","id":"","geometry":{"type":"Point","coordinates":[2.2383915,41.4437409]},"properties":{"marker-symbol":"restaurant","marker-color":"9b59b6","name":"Telepizza","address":"MARIA AUXILIADORA, 180","city":"Badalona","zipCode":"08912"}},{"type":"Feature","id":"","geometry":{"type":"Point","coordinates":[-4.9895881,36.4858693]},"properties":{"marker-symbol":"restaurant","marker-color":"9b59b6","name":"Telepizza","address":"MARQUES DEL DUERO, 19","city":"Marbella","zipCode":"29670"}},{"type":"Feature","id":"","geometry":{"type":"Point","coordinates":[2.4385315,41.537869]},"properties":{"marker-symbol":"restaurant","marker-color":"9b59b6","name":"Telepizza","address":"MIQUEL BIADA, 2","city":"Mataró","zipCode":"08302"}},{"type":"Feature","id":"","geometry":{"type":"Point","coordinates":[-2.8867281,43.2360081]},"properties":{"marker-symbol":"restaurant","marker-color":"9b59b6","name":"Telepizza","address":"NAGUSIA, 5","city":"Basauri","zipCode":"48970"}},{"type":"Feature","id":"","geometry":{"type":"Point","coordinates":[-3.7125955,40.4553009]},"properties":{"marker-symbol":"restaurant","marker-color":"9b59b6","name":"Telepizza","address":"NUMANCIA, 19-21","city":"Madrid","zipCode":"28039"}},{"type":"Feature","id":"","geometry":{"type":"Point","coordinates":[-5.5749548,42.601619]},"properties":{"marker-symbol":"restaurant","marker-color":"9b59b6","name":"Telepizza","address":"PADRE ISLA, 35","city":"León","zipCode":"24002"}},{"type":"Feature","id":"","geometry":{"type":"Point","coordinates":[-0.4575318,39.4551139]},"properties":{"marker-symbol":"restaurant","marker-color":"9b59b6","name":"Telepizza","address":"PALMERAS, 2","city":"Alaquàs","zipCode":"46970"}},{"type":"Feature","id":"","geometry":{"type":"Point","coordinates":[-6.9501836,37.2581067]},"properties":{"marker-symbol":"restaurant","marker-color":"9b59b6","name":"Telepizza","address":"PALOS DE LA FRONTERA, 3","city":"Huelva","zipCode":"21001"}},{"type":"Feature","id":"","geometry":{"type":"Point","coordinates":[-1.6493532,42.8251409]},"properties":{"marker-symbol":"restaurant","marker-color":"9b59b6","name":"Telepizza","address":"PARQUE DE LOS ENAMORADOS, 24","city":"Pamplona/Iruña","zipCode":"31014"}},{"type":"Feature","id":"","geometry":{"type":"Point","coordinates":[-7.5502541,43.0048593]},"properties":{"marker-symbol":"restaurant","marker-color":"9b59b6","name":"Telepizza","address":"PENA DO REI, 4","city":"Lugo","zipCode":"27002"}},{"type":"Feature","id":"","geometry":{"type":"Point","coordinates":[-3.0220479,39.1554463]},"properties":{"marker-symbol":"restaurant","marker-color":"9b59b6","name":"Telepizza","address":"PINTOR LOPEZ TORRES, 9","city":"Tomelloso","zipCode":"13700"}},{"type":"Feature","id":"","geometry":{"type":"Point","coordinates":[-2.982847,43.2811894]},"properties":{"marker-symbol":"restaurant","marker-color":"9b59b6","name":"Telepizza","address":"Plaza Cruces, 4-6","city":"Barakaldo","zipCode":"48903"}},{"type":"Feature","id":"","geometry":{"type":"Point","coordinates":[-0.0846489,39.8891824]},"properties":{"marker-symbol":"restaurant","marker-color":"9b59b6","name":"Telepizza","address":"Plaza DEL PLA, 17","city":"Borriana/Burriana","zipCode":"12530"}},{"type":"Feature","id":"","geometry":{"type":"Point","coordinates":[2.163444,41.4322413]},"properties":{"marker-symbol":"restaurant","marker-color":"9b59b6","name":"Telepizza","address":"Pº MARAGALL, 368","city":"Barcelona","zipCode":"08031"}},{"type":"Feature","id":"","geometry":{"type":"Point","coordinates":[2.7920964,41.6742668]},"properties":{"marker-symbol":"restaurant","marker-color":"9b59b6","name":"Telepizza","address":"Pº PAU CASALS, 72","city":"Blanes","zipCode":"17300"}},{"type":"Feature","id":"","geometry":{"type":"Point","coordinates":[-4.4384067,36.7126092]},"properties":{"marker-symbol":"restaurant","marker-color":"9b59b6","name":"Telepizza","address":"Pº TILOS, 57","city":"Málaga","zipCode":"29006"}},{"type":"Feature","id":"","geometry":{"type":"Point","coordinates":[2.3249531,41.4804765]},"properties":{"marker-symbol":"restaurant","marker-color":"9b59b6","name":"Telepizza","address":"PRAT DE LA RIBA, 78","city":"Masnou (El)","zipCode":"08320"}},{"type":"Feature","id":"","geometry":{"type":"Point","coordinates":[-2.945068,35.2752472]},"properties":{"marker-symbol":"restaurant","marker-color":"9b59b6","name":"Telepizza","address":"Pso. MARITIMO, LOCAL 5-4","city":"Melilla","zipCode":"52006"}},{"type":"Feature","id":"","geometry":{"type":"Point","coordinates":[-3.6974035,40.4026615]},"properties":{"marker-symbol":"restaurant","marker-color":"9b59b6","name":"Telepizza","address":"PSO. STA. MARIA DE LA CABEZA, 43","city":"Madrid","zipCode":"28045"}},{"type":"Feature","id":"","geometry":{"type":"Point","coordinates":[-3.4044187,40.4678254]},"properties":{"marker-symbol":"restaurant","marker-color":"9b59b6","name":"Telepizza","address":"PTA.VADO, ESQ. Pº PASTRANA, 1","city":"Alcalá de Henares","zipCode":"28803"}},{"type":"Feature","id":"","geometry":{"type":"Point","coordinates":[-5.9545971,37.3758389]},"properties":{"marker-symbol":"restaurant","marker-color":"9b59b6","name":"Telepizza","address":"PUERTO DEL ESCUDO, 2","city":"Sevilla","zipCode":"41006"}},{"type":"Feature","id":"","geometry":{"type":"Point","coordinates":[2.1757278,41.3919671]},"properties":{"marker-symbol":"restaurant","marker-color":"9b59b6","name":"Telepizza","address":"PZ.DE URQUINAONA, 10","city":"Barcelona","zipCode":"08010"}},{"type":"Feature","id":"","geometry":{"type":"Point","coordinates":[-2.9443926,43.2572664]},"properties":{"marker-symbol":"restaurant","marker-color":"9b59b6","name":"Telepizza","address":"PZA. DE LA CASILLA, 2","city":"Bilbao","zipCode":"48012"}},{"type":"Feature","id":"","geometry":{"type":"Point","coordinates":[-3.5538699,40.3631082]},"properties":{"marker-symbol":"restaurant","marker-color":"9b59b6","name":"Telepizza","address":"PZA. LUIS BUÑUEL, 3","city":"Rivas-Vaciamadrid","zipCode":"28529"}},{"type":"Feature","id":"","geometry":{"type":"Point","coordinates":[-4.4167094,36.7233434]},"properties":{"marker-symbol":"restaurant","marker-color":"9b59b6","name":"Telepizza","address":"PZA. MERCED, 22","city":"Málaga","zipCode":"29012"}},{"type":"Feature","id":"","geometry":{"type":"Point","coordinates":[-4.0552024,38.0399849]},"properties":{"marker-symbol":"restaurant","marker-color":"9b59b6","name":"Telepizza","address":"PZA.AUTONOMIA, 1","city":"Andújar","zipCode":"23740"}},{"type":"Feature","id":"","geometry":{"type":"Point","coordinates":[-6.3625572,36.6197076]},"properties":{"marker-symbol":"restaurant","marker-color":"9b59b6","name":"Telepizza","address":"PZA.JESUS NAZARENO,S/N","city":"Rota","zipCode":"11520"}},{"type":"Feature","id":"","geometry":{"type":"Point","coordinates":[1.7270362,41.2203089]},"properties":{"marker-symbol":"restaurant","marker-color":"9b59b6","name":"Telepizza","address":"RAMBLA DE LA PAU, 23","city":"Vilanova i la Geltrú","zipCode":"08800"}},{"type":"Feature","id":"","geometry":{"type":"Point","coordinates":[2.0835461,41.470765]},"properties":{"marker-symbol":"restaurant","marker-color":"9b59b6","name":"Telepizza","address":"RAMBLA DEL CELLER, 15","city":"Sant Cugat del Vallès","zipCode":"08190"}},{"type":"Feature","id":"","geometry":{"type":"Point","coordinates":[-6.0483156,37.3872809]},"properties":{"marker-symbol":"restaurant","marker-color":"9b59b6","name":"Telepizza","address":"Real, 10","city":"Castilleja de la Cuesta","zipCode":"41950"}},{"type":"Feature","id":"","geometry":{"type":"Point","coordinates":[-6.1984253,36.4638286]},"properties":{"marker-symbol":"restaurant","marker-color":"9b59b6","name":"Telepizza","address":"REAL, 78","city":"San Fernando","zipCode":"11100"}},{"type":"Feature","id":"","geometry":{"type":"Point","coordinates":[-0.3291748,39.4659026]},"properties":{"marker-symbol":"restaurant","marker-color":"9b59b6","name":"Telepizza","address":"REINA, 51","city":"Valencia","zipCode":"46011"}},{"type":"Feature","id":"","geometry":{"type":"Point","coordinates":[-6.0021158,37.3777687]},"properties":{"marker-symbol":"restaurant","marker-color":"9b59b6","name":"Telepizza","address":"REPUBLICA ARGENTINA, 26","city":"Sevilla","zipCode":"41011"}},{"type":"Feature","id":"","geometry":{"type":"Point","coordinates":[2.1273744,41.3715136]},"properties":{"marker-symbol":"restaurant","marker-color":"9b59b6","name":"Telepizza","address":"RIERA BLANCA, 112","city":"Hospitalet de Llobregat (L')","zipCode":"08903"}},{"type":"Feature","id":"","geometry":{"type":"Point","coordinates":[2.1062106,41.5519515]},"properties":{"marker-symbol":"restaurant","marker-color":"9b59b6","name":"Telepizza","address":"RONDA DE ZAMENHOF, 1","city":"Sabadell","zipCode":"08201"}},{"type":"Feature","id":"","geometry":{"type":"Point","coordinates":[-0.9362072,41.6537483]},"properties":{"marker-symbol":"restaurant","marker-color":"9b59b6","name":"Telepizza","address":"RONDA IBON DE PLAN, 22","city":"Zaragoza","zipCode":"50011"}},{"type":"Feature","id":"","geometry":{"type":"Point","coordinates":[-3.4856136,40.3671054]},"properties":{"marker-symbol":"restaurant","marker-color":"9b59b6","name":"Telepizza","address":"SAIZ ROMILLO, 7","city":"Velilla de San Antonio","zipCode":"28891"}},{"type":"Feature","id":"","geometry":{"type":"Point","coordinates":[-5.9292396,43.55431]},"properties":{"marker-symbol":"restaurant","marker-color":"9b59b6","name":"Telepizza","address":"SAN AGUSTIN, 15","city":"Avilés","zipCode":"33400"}},{"type":"Feature","id":"","geometry":{"type":"Point","coordinates":[-8.229104,43.4835087]},"properties":{"marker-symbol":"restaurant","marker-color":"9b59b6","name":"Telepizza","address":"SAN ANDRES, 17. BAJO B","city":"Ferrol","zipCode":"15403"}},{"type":"Feature","id":"","geometry":{"type":"Point","coordinates":[-3.7023395,42.3382093]},"properties":{"marker-symbol":"restaurant","marker-color":"9b59b6","name":"Telepizza","address":"SAN COSME, 2 - BAJO","city":"Burgos","zipCode":"09002"}},{"type":"Feature","id":"","geometry":{"type":"Point","coordinates":[-4.5418141,37.3598432]},"properties":{"marker-symbol":"restaurant","marker-color":"9b59b6","name":"Telepizza","address":"SAN PEDRO, 23, LOCAL 2","city":"Lucena","zipCode":"14900"}},{"type":"Feature","id":"","geometry":{"type":"Point","coordinates":[-6.9466962,37.2605511]},"properties":{"marker-symbol":"restaurant","marker-color":"9b59b6","name":"Telepizza","address":"SAN SEBASTIAN, 23","city":"Huelva","zipCode":"21003"}},{"type":"Feature","id":"","geometry":{"type":"Point","coordinates":[2.213057,41.5391082]},"properties":{"marker-symbol":"restaurant","marker-color":"9b59b6","name":"Telepizza","address":"SAN VICENÇ, 6","city":"Mollet del Vallès","zipCode":"08100"}},{"type":"Feature","id":"","geometry":{"type":"Point","coordinates":[2.2215749,41.4297589]},"properties":{"marker-symbol":"restaurant","marker-color":"9b59b6","name":"Telepizza","address":"SANTA CATERINA, 19 - BAJOS","city":"Sant Adrià de Besòs","zipCode":"08930"}},{"type":"Feature","id":"","geometry":{"type":"Point","coordinates":[-0.0419877,39.9658255]},"properties":{"marker-symbol":"restaurant","marker-color":"9b59b6","name":"Telepizza","address":"SEGARRA RIVES, 1","city":"Castellón de la Plana/Castelló de l","zipCode":"12005"}},{"type":"Feature","id":"","geometry":{"type":"Point","coordinates":[-0.3378506,39.4621042]},"properties":{"marker-symbol":"restaurant","marker-color":"9b59b6","name":"Telepizza","address":"SERRERIA, 4","city":"Valencia","zipCode":"46022"}},{"type":"Feature","id":"","geometry":{"type":"Point","coordinates":[-3.6712269,40.3853088]},"properties":{"marker-symbol":"restaurant","marker-color":"9b59b6","name":"Telepizza","address":"SIERRA DE ALBARRACIN, 14","city":"Madrid","zipCode":"28019"}},{"type":"Feature","id":"","geometry":{"type":"Point","coordinates":[-2.461295,42.4571052]},"properties":{"marker-symbol":"restaurant","marker-color":"9b59b6","name":"Telepizza","address":"SIETE INFANTES DE LARA,15-BAJO 2","city":"Logroño","zipCode":"26007"}},{"type":"Feature","id":"","geometry":{"type":"Point","coordinates":[-3.861338,40.3214307]},"properties":{"marker-symbol":"restaurant","marker-color":"9b59b6","name":"Telepizza","address":"SIMON HERNANDEZ, 30","city":"Móstoles","zipCode":"28937"}},{"type":"Feature","id":"","geometry":{"type":"Point","coordinates":[-8.4088682,43.3619637]},"properties":{"marker-symbol":"restaurant","marker-color":"9b59b6","name":"Telepizza","address":"TENIENTE GRAL. GOMEZ ZAMALLOA, 12","city":"Coruña (A)","zipCode":"15005"}},{"type":"Feature","id":"","geometry":{"type":"Point","coordinates":[-3.5838002,37.1549034]},"properties":{"marker-symbol":"restaurant","marker-color":"9b59b6","name":"Telepizza","address":"TORRE DE LA JUSTICIA,S/N, VERONA","city":"Granada","zipCode":"18008"}},{"type":"Feature","id":"","geometry":{"type":"Point","coordinates":[-5.9253767,37.1649825]},"properties":{"marker-symbol":"restaurant","marker-color":"9b59b6","name":"Telepizza","address":"TORRES QUEVEDO, 75","city":"Palacios y Villafranca (Los)","zipCode":"41720"}},{"type":"Feature","id":"","geometry":{"type":"Point","coordinates":[-4.7179938,41.6476507]},"properties":{"marker-symbol":"restaurant","marker-color":"9b59b6","name":"Telepizza","address":"TUDELA, 17","city":"Valladolid","zipCode":"47002"}},{"type":"Feature","id":"","geometry":{"type":"Point","coordinates":[2.0281265,41.3507678]},"properties":{"marker-symbol":"restaurant","marker-color":"9b59b6","name":"Telepizza","address":"URGELL, 10-12","city":"Sant Boi de Llobregat","zipCode":"08630"}},{"type":"Feature","id":"","geometry":{"type":"Point","coordinates":[-0.593985,39.6276263]},"properties":{"marker-symbol":"restaurant","marker-color":"9b59b6","name":"Telepizza","address":"VALENCIA, 18","city":"Llíria","zipCode":"46160"}},{"type":"Feature","id":"","geometry":{"type":"Point","coordinates":[-0.3946462,39.4801754]},"properties":{"marker-symbol":"restaurant","marker-color":"9b59b6","name":"Telepizza","address":"VALLE DE LA BALLESTERA, 15","city":"Valencia","zipCode":"46015"}},{"type":"Feature","id":"","geometry":{"type":"Point","coordinates":[-13.8675229,28.5006993]},"properties":{"marker-symbol":"restaurant","marker-color":"9b59b6","name":"Telepizza","address":"VIRGEN DE LA PEÑA, 43-45","city":"Puerto del Rosario","zipCode":"35600"}},{"type":"Feature","id":"","geometry":{"type":"Point","coordinates":[-3.3590446,37.994179]},"properties":{"marker-symbol":"restaurant","marker-color":"9b59b6","name":"Telepizza","address":"ZURBARAN,FASE 3,GARDENIAS,LOC 4-B-A","city":"Úbeda","zipCode":"23400"}},{"type":"Feature","id":"","geometry":{"type":"Point","coordinates":[2.0189502,41.3141348]},"properties":{"marker-symbol":"restaurant","marker-color":"9b59b6","name":"Pizza Sapri","address":"Avda. GENERALITAT, 88","city":"Viladecans","zipCode":"08840"}},{"type":"Feature","id":"","geometry":{"type":"Point","coordinates":[2.0076007,41.4005349]},"properties":{"marker-symbol":"restaurant","marker-color":"9b59b6","name":"Pizza Sapri","address":"Ctra. SANT BOI, 54","city":"Sant Vicenç dels Horts","zipCode":"08620"}},{"type":"Feature","id":"","geometry":{"type":"Point","coordinates":[1.8727059,41.5337115]},"properties":{"marker-symbol":"restaurant","marker-color":"9b59b6","name":"Pizza Sapri","address":"FRANCESC MARIMON, 94","city":"Esparreguera","zipCode":"08292"}},{"type":"Feature","id":"","geometry":{"type":"Point","coordinates":[2.189477,41.4371479]},"properties":{"marker-symbol":"restaurant","marker-color":"9b59b6","name":"Pizza Sapri","address":"GRAN DE SANT ANDREU, 317","city":"Barcelona","zipCode":"08030"}},{"type":"Feature","id":"","geometry":{"type":"Point","coordinates":[1.9304419,41.3840385]},"properties":{"marker-symbol":"restaurant","marker-color":"9b59b6","name":"Pizza Sapri","address":"MAJOR, 542","city":"Vallirana","zipCode":"08759"}},{"type":"Feature","id":"","geometry":{"type":"Point","coordinates":[2.1509857,41.4065416]},"properties":{"marker-symbol":"restaurant","marker-color":"9b59b6","name":"Pizza Sapri","address":"PEREZ GALDOS, 45","city":"Barcelona","zipCode":"08012"}},{"type":"Feature","id":"","geometry":{"type":"Point","coordinates":[1.9269829,41.414124]},"properties":{"marker-symbol":"restaurant","marker-color":"9b59b6","name":"Pizza Sapri","address":"Pso. Arbres, 26","city":"Corbera de Llobregat","zipCode":"08757"}},{"type":"Feature","id":"","geometry":{"type":"Point","coordinates":[2.163444,41.4322413]},"properties":{"marker-symbol":"restaurant","marker-color":"9b59b6","name":"Pizza Sapri","address":"Pso. Maragall, 306-308 (Nou Barris)","city":"Barcelona","zipCode":"08031"}},{"type":"Feature","id":"","geometry":{"type":"Point","coordinates":[2.0822067,41.3684246]},"properties":{"marker-symbol":"restaurant","marker-color":"9b59b6","name":"Pizza Sapri","address":"Sant Antoni María Claret, 127","city":"Barcelona","zipCode":"08025"}},{"type":"Feature","id":"","geometry":{"type":"Point","coordinates":[2.0158358,41.4139169]},"properties":{"marker-symbol":"restaurant","marker-color":"9b59b6","name":"Pizza Sapri","address":"Santiago Rossinyol, 6","city":"Molins de Rei","zipCode":"08750"}}]}