{"type":"FeatureCollection","features":[{"type":"Feature","id":"","geometry":{"type":"Point","coordinates":[-4.8870822,36.5080371]},"properties":{"marker-symbol":"restaurant","marker-color":"3498db","name":"TERRA SANA","address":"ANTONIO BELON, 1","city":"Marbella","zipCode":"29600"}},{"type":"Feature","id":"","geometry":{"type":"Point","coordinates":[-4.7743365,36.5194999]},"properties":{"marker-symbol":"restaurant","marker-color":"3498db","name":"TERRA SANA","address":"Avda. PRINCIPE DE HOHENLOHE (GVADAL","city":"Marbella","zipCode":"29600"}},{"type":"Feature","id":"","geometry":{"type":"Point","coordinates":[-5.1744903,36.4435104]},"properties":{"marker-symbol":"restaurant","marker-color":"3498db","name":"TERRA SANA","address":"C.C. LAGUNA VILLAGE L R2A","city":"Estepona","zipCode":"29680"}},{"type":"Feature","id":"","geometry":{"type":"Point","coordinates":[-4.4215964,36.7195017]},"properties":{"marker-symbol":"restaurant","marker-color":"3498db","name":"TERRA SANA","address":"C.C. Larios","city":"Málaga","zipCode":"29002"}},{"type":"Feature","id":"","geometry":{"type":"Point","coordinates":[-5.3845717,36.2097481]},"properties":{"marker-symbol":"restaurant","marker-color":"3498db","name":"TERRA SANA","address":"C.C. Mar y Sol","city":"San Roque","zipCode":"11360"}},{"type":"Feature","id":"","geometry":{"type":"Point","coordinates":[-4.9554159,36.4873085]},"properties":{"marker-symbol":"restaurant","marker-color":"3498db","name":"TERRA SANA","address":"C.C. MARINA BANUS, L. 208 A","city":"MARBELLA (PUERTO BANUS)","zipCode":"29660"}},{"type":"Feature","id":"","geometry":{"type":"Point","coordinates":[-4.9633503,36.498716]},"properties":{"marker-symbol":"restaurant","marker-color":"3498db","name":"TERRA SANA","address":"LAS MALVAS,S/N,EDIF.ON LINE.BL.8-9","city":"MARBELLA (NUEVA ANDALUCIA)","zipCode":"29660"}},{"type":"Feature","id":"","geometry":{"type":"Point","coordinates":[-4.4200186,36.7196459]},"properties":{"marker-symbol":"restaurant","marker-color":"3498db","name":"TERRA SANA","address":"URB. HACIENDA LAS CHAPAS C/8 N27","city":"ELVIRIA","zipCode":"29600"}},{"type":"Feature","id":"","geometry":{"type":"Point","coordinates":[-4.971457200000032,36.5114631]},"properties":{"marker-symbol":"restaurant","marker-color":"3498db","name":"TERRA SANA","address":"C.C. LA CAÑADA (GIMNASIO OXIGENO)","city":"Marbella","zipCode":"29660"}},{"type":"Feature","id":"","geometry":{"type":"Point","coordinates":[-0.4613582,39.4650522]},"properties":{"marker-symbol":"restaurant","marker-color":"3498db","name":"Fresc Co","address":"C.C. BONAIRE. LOCAL I-018","city":"Aldaia","zipCode":"46960"}},{"type":"Feature","id":"","geometry":{"type":"Point","coordinates":[-0.8900373,41.6690395]},"properties":{"marker-symbol":"restaurant","marker-color":"3498db","name":"Fresc Co","address":"C.C. GRANCASA","city":"Zaragoza","zipCode":"50015"}},{"type":"Feature","id":"","geometry":{"type":"Point","coordinates":[2.1573033,41.3334469]},"properties":{"marker-symbol":"restaurant","marker-color":"3498db","name":"Fresc Co","address":"C.C. MAREMAGNUM, LOCAL 5A","city":"Barcelona","zipCode":"08039"}},{"type":"Feature","id":"","geometry":{"type":"Point","coordinates":[-3.0025615,43.2660332]},"properties":{"marker-symbol":"restaurant","marker-color":"3498db","name":"Fresc Co","address":"C.C. MAX CENTER","city":"Barakaldo","zipCode":"48903"}},{"type":"Feature","id":"","geometry":{"type":"Point","coordinates":[-3.7010492,40.4195011]},"properties":{"marker-symbol":"restaurant","marker-color":"3498db","name":"Fresc Co","address":"CABALLERO DE GRACIA, 8","city":"Madrid","zipCode":"28013"}},{"type":"Feature","id":"","geometry":{"type":"Point","coordinates":[2.1699699,41.3828839]},"properties":{"marker-symbol":"restaurant","marker-color":"3498db","name":"Fresc Co","address":"CARMEN, 16","city":"Barcelona","zipCode":"08001"}},{"type":"Feature","id":"","geometry":{"type":"Point","coordinates":[2.1715252,41.3898839]},"properties":{"marker-symbol":"restaurant","marker-color":"3498db","name":"Fresc Co","address":"CASPE, 30","city":"Barcelona","zipCode":"08010"}},{"type":"Feature","id":"","geometry":{"type":"Point","coordinates":[2.1488631,41.3935367]},"properties":{"marker-symbol":"restaurant","marker-color":"3498db","name":"Fresc Co","address":"DIAGONAL,449","city":"Barcelona","zipCode":"08007"}},{"type":"Feature","id":"","geometry":{"type":"Point","coordinates":[-0.3707161,39.4683848]},"properties":{"marker-symbol":"restaurant","marker-color":"3498db","name":"Fresc Co","address":"FELIX PIZCUETA, 6","city":"MADRID","zipCode":"46004"}},{"type":"Feature","id":"","geometry":{"type":"Point","coordinates":[-3.5990494,37.1785821]},"properties":{"marker-symbol":"restaurant","marker-color":"3498db","name":"Fresc Co","address":"GRAN VIA DE COLON, 28","city":"Granada","zipCode":"18010"}},{"type":"Feature","id":"","geometry":{"type":"Point","coordinates":[-2.9390495,43.2638164]},"properties":{"marker-symbol":"restaurant","marker-color":"3498db","name":"Fresc Co","address":"GRAN VIA, 55","city":"Bilbao","zipCode":"48001"}},{"type":"Feature","id":"","geometry":{"type":"Point","coordinates":[-2.9285553,43.2622529]},"properties":{"marker-symbol":"restaurant","marker-color":"3498db","name":"Fresc Co","address":"Ledesma, 12","city":"Bilbao","zipCode":"48001"}},{"type":"Feature","id":"","geometry":{"type":"Point","coordinates":[-0.3445432,39.4572808]},"properties":{"marker-symbol":"restaurant","marker-color":"3498db","name":"Fresc Co","address":"LUIS BOLINCHES, 18","city":"Valencia","zipCode":"46023"}},{"type":"Feature","id":"","geometry":{"type":"Point","coordinates":[-3.6782432,40.4372806]},"properties":{"marker-symbol":"restaurant","marker-color":"3498db","name":"Fresc Co","address":"MARIA DE MOLINA, 66","city":"Madrid","zipCode":"28006"}},{"type":"Feature","id":"","geometry":{"type":"Point","coordinates":[-3.6756373,40.4231988]},"properties":{"marker-symbol":"restaurant","marker-color":"3498db","name":"Fresc Co","address":"NARVAEZ, 9","city":"Madrid","zipCode":"28009"}},{"type":"Feature","id":"","geometry":{"type":"Point","coordinates":[2.1647178,41.3945414]},"properties":{"marker-symbol":"restaurant","marker-color":"3498db","name":"Fresc Co","address":"PAU CLARIS, 151","city":"Barcelona","zipCode":"08009"}},{"type":"Feature","id":"","geometry":{"type":"Point","coordinates":[-3.6689544,40.4277747]},"properties":{"marker-symbol":"restaurant","marker-color":"3498db","name":"Fresc Co","address":"Plaza Manuel Becerra, 17","city":"Madrid","zipCode":""}},{"type":"Feature","id":"","geometry":{"type":"Point","coordinates":[-0.4911079,38.3420917]},"properties":{"marker-symbol":"restaurant","marker-color":"3498db","name":"Fresc Co","address":"REYES CATOLICOS, 26","city":"Alicante/Alacant","zipCode":"03002"}},{"type":"Feature","id":"","geometry":{"type":"Point","coordinates":[2.1670888,41.3870261]},"properties":{"marker-symbol":"restaurant","marker-color":"3498db","name":"Fresc Co","address":"RONDA UNIVERSITAT, 29","city":"Barcelona","zipCode":"08007"}},{"type":"Feature","id":"","geometry":{"type":"Point","coordinates":[-3.6901593,40.4332065]},"properties":{"marker-symbol":"restaurant","marker-color":"3498db","name":"Fresc Co","address":"SALAMANCA, 6","city":"MADRID","zipCode":"46005"}},{"type":"Feature","id":"","geometry":{"type":"Point","coordinates":[2.1970905,41.3888702]},"properties":{"marker-symbol":"restaurant","marker-color":"3498db","name":"Fresc Co","address":"SALVADOR ESPRIU, 31-35","city":"Barcelona","zipCode":"08005"}},{"type":"Feature","id":"","geometry":{"type":"Point","coordinates":[-0.8785252,41.6512352]},"properties":{"marker-symbol":"restaurant","marker-color":"3498db","name":"Fresc Co","address":"SANTA CATALINA, 1","city":"Zaragoza","zipCode":"50001"}},{"type":"Feature","id":"","geometry":{"type":"Point","coordinates":[-3.3817264,40.4761176]},"properties":{"marker-symbol":"restaurant","marker-color":"3498db","name":"Salad & Co","address":"C.C. CUADERNILLOS CTRA. MADRID-BCN,","city":"Alcalá de Henares","zipCode":"28802"}},{"type":"Feature","id":"","geometry":{"type":"Point","coordinates":[-3.7403895,40.3632349]},"properties":{"marker-symbol":"restaurant","marker-color":"3498db","name":"Salad & Co","address":"C.C. ISLAZUL-C/CALDERILLA, 1","city":"Madrid","zipCode":"28025"}},{"type":"Feature","id":"","geometry":{"type":"Point","coordinates":[-3.7003632,40.4765501]},"properties":{"marker-symbol":"restaurant","marker-color":"3498db","name":"Salad & Co","address":"C.C. LA VAGUADA AVDA. MONFORTE LEMO","city":"Madrid","zipCode":"28029"}},{"type":"Feature","id":"","geometry":{"type":"Point","coordinates":[-3.7327191,40.3400009]},"properties":{"marker-symbol":"restaurant","marker-color":"3498db","name":"Salad & Co","address":"C.C. PARQUE SUR AVDA. GRAN BRETAÑA,","city":"Leganés","zipCode":"28916"}},{"type":"Feature","id":"","geometry":{"type":"Point","coordinates":[-3.7068163,40.4197448]},"properties":{"marker-symbol":"restaurant","marker-color":"3498db","name":"Salad & Co","address":"PRECIADOS, 36","city":"Madrid","zipCode":"28013"}}]}