{"type":"FeatureCollection","features":[{"type":"Feature","id":"","geometry":{"type":"Point","coordinates":[-5.5760513,42.5949997]},"properties":{"marker-symbol":"fast-food","name":"Prada a Tope","address":"Alfonso IX, 9","city":"León","zipCode":"24004"}},{"type":"Feature","id":"","geometry":{"type":"Point","coordinates":[-4.3012335,43.3158907]},"properties":{"marker-symbol":"fast-food","name":"Prada a Tope","address":"Barrio El Ánsar","city":"Valdáliga","zipCode":"39592"}},{"type":"Feature","id":"","geometry":{"type":"Point","coordinates":[-3.8017277,40.4458536]},"properties":{"marker-symbol":"fast-food","name":"Prada a Tope","address":"BENIGNO GRANIZO, 20-22","city":"Pozuelo de Alarcón","zipCode":"28224"}},{"type":"Feature","id":"","geometry":{"type":"Point","coordinates":[-4.7288053,41.6539076]},"properties":{"marker-symbol":"fast-food","name":"Prada a Tope","address":"FRANCISCO ZARANDONA, 10","city":"Valladolid","zipCode":"47003"}},{"type":"Feature","id":"","geometry":{"type":"Point","coordinates":[-3.8094156,43.4638181]},"properties":{"marker-symbol":"fast-food","name":"Prada a Tope","address":"Guevara, 7 A","city":"Santander","zipCode":"39001"}},{"type":"Feature","id":"","geometry":{"type":"Point","coordinates":[-6.7028275,42.6445719]},"properties":{"marker-symbol":"fast-food","name":"Prada a Tope","address":"Palacio de Canedo","city":"Arganza","zipCode":"24546"}},{"type":"Feature","id":"","geometry":{"type":"Point","coordinates":[-8.720669,42.2397029]},"properties":{"marker-symbol":"fast-food","name":"Prada a Tope","address":"Plaza Compostela, 19","city":"Vigo","zipCode":"36201"}},{"type":"Feature","id":"","geometry":{"type":"Point","coordinates":[-3.7002984,40.4158158]},"properties":{"marker-symbol":"fast-food","name":"Prada a Tope","address":"PRINCIPE, 11","city":"Madrid","zipCode":"28012"}},{"type":"Feature","id":"","geometry":{"type":"Point","coordinates":[-2.9159835,43.2563257]},"properties":{"marker-symbol":"fast-food","name":"Prada a Tope","address":"SANTA MARIA, 3","city":"Bilbao","zipCode":"48005"}},{"type":"Feature","id":"","geometry":{"type":"Point","coordinates":[-4.7808095,37.8961896]},"properties":{"marker-symbol":"fast-food","name":"Chefbuffet","address":"","city":"Córdoba","zipCode":"14006"}},{"type":"Feature","id":"","geometry":{"type":"Point","coordinates":[-4.883185,37.8245092]},"properties":{"marker-symbol":"fast-food","name":"Chefbuffet","address":"","city":"Córdoba","zipCode":"14711"}},{"type":"Feature","id":"","geometry":{"type":"Point","coordinates":[-6.0891032,36.5189872]},"properties":{"marker-symbol":"fast-food","name":"Chefbuffet","address":"CAMPUS UNIVERSITARIO UCA","city":"Puerto Real","zipCode":"11510"}},{"type":"Feature","id":"","geometry":{"type":"Point","coordinates":[-4.7726764,37.8995589]},"properties":{"marker-symbol":"fast-food","name":"Chefbuffet","address":"FUENTE DE LA SALUD, 25","city":"Córdoba","zipCode":"14006"}},{"type":"Feature","id":"","geometry":{"type":"Point","coordinates":[-3.7003454,40.4166909]},"properties":{"marker-symbol":"fast-food","name":"Chefbuffet","address":"JUAN CARLOS ONETTI, 2","city":"MADRID -LAS TABLAS-","zipCode":"28000"}},{"type":"Feature","id":"","geometry":{"type":"Point","coordinates":[-4.7213705,37.9048907]},"properties":{"marker-symbol":"fast-food","name":"Chefbuffet","address":"SIMON CARPINTERO, 106","city":"Córdoba","zipCode":"14040"}},{"type":"Feature","id":"","geometry":{"type":"Point","coordinates":[-3.6995125,42.344376]},"properties":{"marker-symbol":"fast-food","name":"Chefbuffet","address":"C/ Sanz Pastor, 7","city":"Burgos","zipCode":"09003"}},{"type":"Feature","id":"","geometry":{"type":"Point","coordinates":[-4.7782202,37.8804209]},"properties":{"marker-symbol":"fast-food","name":"Chefbuffet","address":"C/ Cardenal Magistral González, 13","city":"Córdoba","zipCode":"14003"}},{"type":"Feature","id":"","geometry":{"type":"Point","coordinates":[-8.727469,42.2370719]},"properties":{"marker-symbol":"fast-food","name":"Chefbuffet","address":"C.C. A Laxe - C/ Cánovas del Castillo, 1 - Planta Baja","city":"Vigo","zipCode":"36202"}},{"type":"Feature","id":"","geometry":{"type":"Point","coordinates":[-8.727469,42.2370719]},"properties":{"marker-symbol":"fast-food","name":"Chefbuffet","address":"C.C. A Laxe - C/ Cánovas del Castillo, 1 - Planta 2ª","city":"Vigo","zipCode":"36202"}},{"type":"Feature","id":"","geometry":{"type":"Point","coordinates":[2.1745205,41.4049871]},"properties":{"marker-symbol":"fast-food","name":"Origen 99'9%","address":"Avda. GAUDÍ, 8","city":"Barcelona","zipCode":"08008"}},{"type":"Feature","id":"","geometry":{"type":"Point","coordinates":[2.1546695,41.391266]},"properties":{"marker-symbol":"fast-food","name":"Origen 99'9%","address":"ROSELLO, 154","city":"Barcelona","zipCode":"08008"}},{"type":"Feature","id":"","geometry":{"type":"Point","coordinates":[-0.4643906,38.373599]},"properties":{"marker-symbol":"fast-food","name":"Bruno Caruso","address":"Avda. Miriam Blasco, 3 local 5","city":"Alicante/Alacant","zipCode":"03016"}},{"type":"Feature","id":"","geometry":{"type":"Point","coordinates":[-0.4924271,38.3477132]},"properties":{"marker-symbol":"fast-food","name":"Bruno Caruso","address":"BENITO PEREZ GALDOS, 54","city":"Alicante/Alacant","zipCode":"03005"}},{"type":"Feature","id":"","geometry":{"type":"Point","coordinates":[-0.7742523,38.4774394]},"properties":{"marker-symbol":"fast-food","name":"Bruno Caruso","address":"C.C. BASSA EL MORO, LOCAL A-5","city":"Petrer","zipCode":"03610"}},{"type":"Feature","id":"","geometry":{"type":"Point","coordinates":[-3.6968673,40.4205331]},"properties":{"marker-symbol":"fast-food","name":"Bruno Caruso","address":"COLMENARES, 5","city":"Madrid","zipCode":"28004"}},{"type":"Feature","id":"","geometry":{"type":"Point","coordinates":[-0.4460729,38.4126981]},"properties":{"marker-symbol":"fast-food","name":"Bruno Caruso","address":"DOLORES, 22","city":"Mutxamel","zipCode":"03110"}},{"type":"Feature","id":"","geometry":{"type":"Point","coordinates":[-0.4828758,38.345167]},"properties":{"marker-symbol":"fast-food","name":"Bruno Caruso","address":"MIGUEL SOLER, 10","city":"Alicante/Alacant","zipCode":"03002"}},{"type":"Feature","id":"","geometry":{"type":"Point","coordinates":[-0.481006,38.3452032]},"properties":{"marker-symbol":"fast-food","name":"Bruno Caruso","address":"PZA. PORTABELLA (FRENTE C. SALUD)","city":"San Vicente del Raspeig/Sant Vicent","zipCode":"03690"}},{"type":"Feature","id":"","geometry":{"type":"Point","coordinates":[-0.5234193,38.2969628]},"properties":{"marker-symbol":"fast-food","name":"Bruno Caruso","address":"Ramón Gómez Sempere, 46 local 2","city":"Alicante/Alacant","zipCode":"03008"}},{"type":"Feature","id":"","geometry":{"type":"Point","coordinates":[-0.4322808,38.396276]},"properties":{"marker-symbol":"fast-food","name":"Bruno Caruso","address":"SALVADOR MONTESINOS, 8","city":"Sant Joan d'Alacant","zipCode":"03700"}},{"type":"Feature","id":"","geometry":{"type":"Point","coordinates":[-0.4768794,38.3555561]},"properties":{"marker-symbol":"fast-food","name":"Bruno Caruso","address":"SAN IGNACIO DE LOYOLA, 14","city":"Alicante/Alacant","zipCode":"03013"}},{"type":"Feature","id":"","geometry":{"type":"Point","coordinates":[-0.481006,38.3452032]},"properties":{"marker-symbol":"fast-food","name":"Bruno Caruso","address":"VISTABELLA, 11","city":"Alcoy/Alcoi","zipCode":"03800"}},{"type":"Feature","id":"","geometry":{"type":"Point","coordinates":[-3.7182527,40.4345255]},"properties":{"marker-symbol":"fast-food","name":"Taberna Bocatín","address":"ARCIPRESTE DE HITA, 14","city":"Madrid","zipCode":"28015"}},{"type":"Feature","id":"","geometry":{"type":"Point","coordinates":[-0.3489496,39.4574512]},"properties":{"marker-symbol":"fast-food","name":"Taberna Bocatín","address":"C.C. AQUA MULTIESPACIO. MENORCA, 19","city":"Valencia","zipCode":"46023"}},{"type":"Feature","id":"","geometry":{"type":"Point","coordinates":[-6.9620081,37.2627729]},"properties":{"marker-symbol":"fast-food","name":"Taberna Bocatín","address":"C.C. Aqualon Puerto. Gta. Norte, s/","city":"Huelva","zipCode":"21002"}},{"type":"Feature","id":"","geometry":{"type":"Point","coordinates":[-0.7742523,38.4774394]},"properties":{"marker-symbol":"fast-food","name":"Taberna Bocatín","address":"C.C. BASSA EL MORO, LOCALES A5 Y A5","city":"Petrer","zipCode":"03610"}},{"type":"Feature","id":"","geometry":{"type":"Point","coordinates":[2.7381487,39.63372]},"properties":{"marker-symbol":"fast-food","name":"Taberna Bocatín","address":"C.C. FESTIVAL PARK.AUT.PALMA-INCA,7","city":"Marratxí","zipCode":"07141"}},{"type":"Feature","id":"","geometry":{"type":"Point","coordinates":[-6.2926569,36.5296879]},"properties":{"marker-symbol":"fast-food","name":"Taberna Bocatín","address":"C.C. Gran Sur. Avda. Colonia, 9","city":"Línea de la Concepción (La)","zipCode":"11300"}},{"type":"Feature","id":"","geometry":{"type":"Point","coordinates":[-1.8600701,38.9976516]},"properties":{"marker-symbol":"fast-food","name":"Taberna Bocatín","address":"C.C. Imaginalia, local 26","city":"Albacete","zipCode":"02006"}},{"type":"Feature","id":"","geometry":{"type":"Point","coordinates":[2.6090043,39.6329439]},"properties":{"marker-symbol":"fast-food","name":"Taberna Bocatín","address":"C.C. Ocimax, local B5","city":"Palma","zipCode":"07010"}},{"type":"Feature","id":"","geometry":{"type":"Point","coordinates":[-3.9897803,39.9424192]},"properties":{"marker-symbol":"fast-food","name":"Taberna Bocatín","address":"C.C. PUERTA DE TOLEDO. CTRA. N-401","city":"Olías del Rey","zipCode":"45280"}},{"type":"Feature","id":"","geometry":{"type":"Point","coordinates":[-5.5407299,36.2001653]},"properties":{"marker-symbol":"fast-food","name":"Taberna Bocatín","address":"Montera del Torero, 8. EE.SS. Cepsa","city":"Barrios (Los)","zipCode":"11370"}},{"type":"Feature","id":"","geometry":{"type":"Point","coordinates":[-0.7585309,38.3839471]},"properties":{"marker-symbol":"fast-food","name":"Tapelia","address":"Avda. CONSTITUCION, 99","city":"Novelda","zipCode":"03660"}},{"type":"Feature","id":"","geometry":{"type":"Point","coordinates":[-0.3740741,39.4698264]},"properties":{"marker-symbol":"fast-food","name":"Tapelia","address":"CORREOS, 14","city":"Valencia","zipCode":"46024"}},{"type":"Feature","id":"","geometry":{"type":"Point","coordinates":[-4.7842603,37.8887179]},"properties":{"marker-symbol":"fast-food","name":"Tapelia","address":"FRAY LUIS DE GRANADA, 11","city":"Córdoba","zipCode":"14008"}},{"type":"Feature","id":"","geometry":{"type":"Point","coordinates":[-0.8827022,41.6457409]},"properties":{"marker-symbol":"fast-food","name":"Tapelia","address":"GENERAL SUEIRO, 11","city":"Zaragoza","zipCode":"50008"}},{"type":"Feature","id":"","geometry":{"type":"Point","coordinates":[-2.4520911,42.4659751]},"properties":{"marker-symbol":"fast-food","name":"Tapelia","address":"MARQUES DE MURRIETA, 6","city":"Logroño","zipCode":"26005"}},{"type":"Feature","id":"","geometry":{"type":"Point","coordinates":[-5.9779321,37.3750498]},"properties":{"marker-symbol":"fast-food","name":"Tapelia","address":"PRESIDENTE CARDENAS, 4","city":"Sevilla","zipCode":"41013"}},{"type":"Feature","id":"","geometry":{"type":"Point","coordinates":[-2.6741619,42.8449543]},"properties":{"marker-symbol":"fast-food","name":"Tapelia","address":"SAN ANTONIO, 3","city":"Vitoria-Gasteiz","zipCode":"01005"}},{"type":"Feature","id":"","geometry":{"type":"Point","coordinates":[-3.8970347,40.4060118]},"properties":{"marker-symbol":"fast-food","name":"El Rey Gambón","address":"Avda. SIGLO XXI, 8","city":"Boadilla del Monte","zipCode":"28660"}},{"type":"Feature","id":"","geometry":{"type":"Point","coordinates":[-3.7612856,40.3626396]},"properties":{"marker-symbol":"fast-food","name":"El Rey Gambón","address":"C.C. ISLAZUL","city":"Madrid","zipCode":"28054"}},{"type":"Feature","id":"","geometry":{"type":"Point","coordinates":[-3.3817264,40.4761176]},"properties":{"marker-symbol":"fast-food","name":"Salad & Co","address":"C.C. CUADERNILLOS CTRA. MADRID-BCN,","city":"Alcalá de Henares","zipCode":"28802"}},{"type":"Feature","id":"","geometry":{"type":"Point","coordinates":[-3.7403895,40.3632349]},"properties":{"marker-symbol":"fast-food","name":"Salad & Co","address":"C.C. ISLAZUL-C/CALDERILLA, 1","city":"Madrid","zipCode":"28025"}},{"type":"Feature","id":"","geometry":{"type":"Point","coordinates":[-3.7003632,40.4765501]},"properties":{"marker-symbol":"fast-food","name":"Salad & Co","address":"C.C. LA VAGUADA AVDA. MONFORTE LEMO","city":"Madrid","zipCode":"28029"}},{"type":"Feature","id":"","geometry":{"type":"Point","coordinates":[-3.7327191,40.3400009]},"properties":{"marker-symbol":"fast-food","name":"Salad & Co","address":"C.C. PARQUE SUR AVDA. GRAN BRETAÑA,","city":"Leganés","zipCode":"28916"}},{"type":"Feature","id":"","geometry":{"type":"Point","coordinates":[-3.7068163,40.4197448]},"properties":{"marker-symbol":"fast-food","name":"Salad & Co","address":"PRECIADOS, 36","city":"Madrid","zipCode":"28013"}},{"type":"Feature","id":"","geometry":{"type":"Point","coordinates":[-0.3576908,39.4725112]},"properties":{"marker-symbol":"fast-food","name":"Restaurantes El Donjuán","address":"Avda. ARAGON, 25","city":"Valencia","zipCode":"46010"}},{"type":"Feature","id":"","geometry":{"type":"Point","coordinates":[-0.4405986,39.5020648]},"properties":{"marker-symbol":"fast-food","name":"Restaurantes El Donjuán","address":"C.C. HERON CITY. LOCAL 1.20.1","city":"Paterna","zipCode":"46980"}},{"type":"Feature","id":"","geometry":{"type":"Point","coordinates":[-0.4008568,39.4928567]},"properties":{"marker-symbol":"fast-food","name":"Restaurantes El Donjuán","address":"CORTES VALENCIANAS, 30","city":"Valencia","zipCode":"46015"}},{"type":"Feature","id":"","geometry":{"type":"Point","coordinates":[-0.3743183,39.4681747]},"properties":{"marker-symbol":"fast-food","name":"Restaurantes El Donjuán","address":"MARTINEZ CUBELLS, 8","city":"Valencia","zipCode":"46002"}},{"type":"Feature","id":"","geometry":{"type":"Point","coordinates":[-0.359831,39.4718406]},"properties":{"marker-symbol":"fast-food","name":"Restaurantes El Donjuán","address":"SERRANOS, 22","city":"Valencia","zipCode":"46010"}},{"type":"Feature","id":"","geometry":{"type":"Point","coordinates":[-4.8870822,36.5080371]},"properties":{"marker-symbol":"fast-food","name":"TERRA SANA","address":"ANTONIO BELON, 1","city":"Marbella","zipCode":"29600"}},{"type":"Feature","id":"","geometry":{"type":"Point","coordinates":[-4.7743365,36.5194999]},"properties":{"marker-symbol":"fast-food","name":"TERRA SANA","address":"Avda. PRINCIPE DE HOHENLOHE (GVADAL","city":"Marbella","zipCode":"29600"}},{"type":"Feature","id":"","geometry":{"type":"Point","coordinates":[-5.1744903,36.4435104]},"properties":{"marker-symbol":"fast-food","name":"TERRA SANA","address":"C.C. LAGUNA VILLAGE L R2A","city":"Estepona","zipCode":"29680"}},{"type":"Feature","id":"","geometry":{"type":"Point","coordinates":[-4.4215964,36.7195017]},"properties":{"marker-symbol":"fast-food","name":"TERRA SANA","address":"C.C. Larios","city":"Málaga","zipCode":"29002"}},{"type":"Feature","id":"","geometry":{"type":"Point","coordinates":[-5.3845717,36.2097481]},"properties":{"marker-symbol":"fast-food","name":"TERRA SANA","address":"C.C. Mar y Sol","city":"San Roque","zipCode":"11360"}},{"type":"Feature","id":"","geometry":{"type":"Point","coordinates":[-4.9554159,36.4873085]},"properties":{"marker-symbol":"fast-food","name":"TERRA SANA","address":"C.C. MARINA BANUS, L. 208 A","city":"MARBELLA (PUERTO BANUS)","zipCode":"29660"}},{"type":"Feature","id":"","geometry":{"type":"Point","coordinates":[-4.9633503,36.498716]},"properties":{"marker-symbol":"fast-food","name":"TERRA SANA","address":"LAS MALVAS,S/N,EDIF.ON LINE.BL.8-9","city":"MARBELLA (NUEVA ANDALUCIA)","zipCode":"29660"}},{"type":"Feature","id":"","geometry":{"type":"Point","coordinates":[-4.4200186,36.7196459]},"properties":{"marker-symbol":"fast-food","name":"TERRA SANA","address":"URB. HACIENDA LAS CHAPAS C/8 N27","city":"ELVIRIA","zipCode":"29600"}},{"type":"Feature","id":"","geometry":{"type":"Point","coordinates":[-4.971457200000032,36.5114631]},"properties":{"marker-symbol":"fast-food","name":"TERRA SANA","address":"C.C. LA CAÑADA (GIMNASIO OXIGENO)","city":"Marbella","zipCode":"29660"}},{"type":"Feature","id":"","geometry":{"type":"Point","coordinates":[2.1854588,41.3854613]},"properties":{"marker-symbol":"fast-food","name":"Dionisos","address":"Avda. MARQUES DE L'ARGENTERA, 27","city":"Barcelona","zipCode":"08003"}},{"type":"Feature","id":"","geometry":{"type":"Point","coordinates":[2.1573814,41.383061]},"properties":{"marker-symbol":"fast-food","name":"Dionisos","address":"COMTE D'URGELL, 90","city":"Barcelona","zipCode":"08011"}},{"type":"Feature","id":"","geometry":{"type":"Point","coordinates":[2.1562914,41.402926]},"properties":{"marker-symbol":"fast-food","name":"Dionisos","address":"TORRENT DE L'OLLA, 142-144","city":"Barcelona","zipCode":"08012"}},{"type":"Feature","id":"","geometry":{"type":"Point","coordinates":[2.1510065,41.3833962]},"properties":{"marker-symbol":"fast-food","name":"Dionisos","address":"VALENCIA, 112","city":"Barcelona","zipCode":"08015"}},{"type":"Feature","id":"","geometry":{"type":"Point","coordinates":[-3.7061624,40.4471073]},"properties":{"marker-symbol":"fast-food","name":"Restaurantes La Madrileña","address":"Avda. REINA VICTORIA, 14","city":"Madrid","zipCode":"28003"}},{"type":"Feature","id":"","geometry":{"type":"Point","coordinates":[-3.8713611,40.468785]},"properties":{"marker-symbol":"fast-food","name":"Restaurantes La Madrileña","address":"SAN ANDRES, 3","city":"Majadahonda","zipCode":"28220"}},{"type":"Feature","id":"","geometry":{"type":"Point","coordinates":[-3.7082115,40.4116594]},"properties":{"marker-symbol":"fast-food","name":"Restaurantes La Madrileña","address":"TOLEDO, S/N","city":"Madrid","zipCode":"28005"}}]}