{"type":"FeatureCollection","features":[{"type":"Feature","id":"","geometry":{"type":"Point","coordinates":[-3.7273159,40.3050123]},"properties":{"marker-symbol":"fast-food","marker-color":"1abc9c","name":"Bocatas Calentitos","address":"ARBOLEDA, 20","city":"Getafe","zipCode":"28901"}},{"type":"Feature","id":"","geometry":{"type":"Point","coordinates":[-6.9401126,37.2638983]},"properties":{"marker-symbol":"fast-food","marker-color":"1abc9c","name":"Bocatas Calentitos","address":"Avda. ANDALUCIA, 4","city":"Huelva","zipCode":"21004"}},{"type":"Feature","id":"","geometry":{"type":"Point","coordinates":[0.0600395,40.0529985]},"properties":{"marker-symbol":"fast-food","marker-color":"1abc9c","name":"Bocatas Calentitos","address":"Avda. DE CASTELLON, 64","city":"Benicasim/Benicàssim","zipCode":"12560"}},{"type":"Feature","id":"","geometry":{"type":"Point","coordinates":[-4.7915043,37.8786976]},"properties":{"marker-symbol":"fast-food","marker-color":"1abc9c","name":"Bocatas Calentitos","address":"Avda. GRAN VIA PARQUE, 43","city":"Córdoba","zipCode":"14004"}},{"type":"Feature","id":"","geometry":{"type":"Point","coordinates":[-4.7577661,37.8944198]},"properties":{"marker-symbol":"fast-food","marker-color":"1abc9c","name":"Bocatas Calentitos","address":"Avda. RABANALES, 33","city":"Córdoba","zipCode":"14007"}},{"type":"Feature","id":"","geometry":{"type":"Point","coordinates":[-5.0769463,37.5330372]},"properties":{"marker-symbol":"fast-food","marker-color":"1abc9c","name":"Bocatas Calentitos","address":"BLAS INFANTE, 7","city":"Écija","zipCode":"41400"}},{"type":"Feature","id":"","geometry":{"type":"Point","coordinates":[-3.1277854,40.5620152]},"properties":{"marker-symbol":"fast-food","marker-color":"1abc9c","name":"Bocatas Calentitos","address":"DOCTOR LAYNA SERRANO, 20 - LOCAL","city":"Guadalajara","zipCode":"19002"}},{"type":"Feature","id":"","geometry":{"type":"Point","coordinates":[-3.6700893,42.35005]},"properties":{"marker-symbol":"fast-food","marker-color":"1abc9c","name":"Bocatas Calentitos","address":"FRANCISCO GRANDMONTAGNE, 21","city":"Burgos","zipCode":"09007"}},{"type":"Feature","id":"","geometry":{"type":"Point","coordinates":[-0.8847817,41.6505532]},"properties":{"marker-symbol":"fast-food","marker-color":"1abc9c","name":"Bocatas Calentitos","address":"MARCELINO ISABAL, 3","city":"Zaragoza","zipCode":"50004"}},{"type":"Feature","id":"","geometry":{"type":"Point","coordinates":[-4.6580042,37.2077639]},"properties":{"marker-symbol":"fast-food","marker-color":"1abc9c","name":"Bocatas Calentitos","address":"Plaza DE ESPAÑA, 2","city":"Lucena","zipCode":"14900"}},{"type":"Feature","id":"","geometry":{"type":"Point","coordinates":[-4.7806407,37.8854685]},"properties":{"marker-symbol":"fast-food","marker-color":"1abc9c","name":"Bocatas Calentitos","address":"Plaza EL MOREAL, 5","city":"Córdoba","zipCode":"14010"}},{"type":"Feature","id":"","geometry":{"type":"Point","coordinates":[-5.8485742,43.3590847]},"properties":{"marker-symbol":"fast-food","marker-color":"1abc9c","name":"Bocatas Calentitos","address":"ROSAL, 66-68","city":"Oviedo","zipCode":"33009"}},{"type":"Feature","id":"","geometry":{"type":"Point","coordinates":[-0.1778513,38.9688829]},"properties":{"marker-symbol":"fast-food","marker-color":"1abc9c","name":"Bocatas Calentitos","address":"TOSSAL, 8","city":"Gandia","zipCode":"46701"}},{"type":"Feature","id":"","geometry":{"type":"Point","coordinates":[-4.793227,37.8835735]},"properties":{"marker-symbol":"fast-food","marker-color":"1abc9c","name":"Bocatas Calentitos","address":"VAZQUEZ AROCA, 29","city":"Córdoba","zipCode":"14005"}},{"type":"Feature","id":"","geometry":{"type":"Point","coordinates":[-5.616,37.174999]},"properties":{"marker-symbol":"fast-food","marker-color":"1abc9c","name":"Subway","address":"496 ABS. BASE AEREA DE MORON","city":"Morón de la Frontera","zipCode":"41530"}},{"type":"Feature","id":"","geometry":{"type":"Point","coordinates":[-1.1298897,37.9834449]},"properties":{"marker-symbol":"fast-food","marker-color":"1abc9c","name":"Subway","address":"AEROPUERTO SAN JAVIER-ZONA SALIDAS","city":"San Javier","zipCode":"30720"}},{"type":"Feature","id":"","geometry":{"type":"Point","coordinates":[-2.9348905,43.2671991]},"properties":{"marker-symbol":"fast-food","marker-color":"1abc9c","name":"Subway","address":"ALAMEDA MAZARREDO, 65","city":"Bilbao","zipCode":"48009"}},{"type":"Feature","id":"","geometry":{"type":"Point","coordinates":[-4.419495,36.7203407]},"properties":{"marker-symbol":"fast-food","marker-color":"1abc9c","name":"Subway","address":"ALCAZABILLA, 1, LOCAL DERECHA","city":"Málaga","zipCode":"29015"}},{"type":"Feature","id":"","geometry":{"type":"Point","coordinates":[-8.403241,43.3599481]},"properties":{"marker-symbol":"fast-food","marker-color":"1abc9c","name":"Subway","address":"C.C. EL PUERTO","city":"Coruña (A)","zipCode":"15006"}},{"type":"Feature","id":"","geometry":{"type":"Point","coordinates":[-0.3323321,39.3826653]},"properties":{"marker-symbol":"fast-food","marker-color":"1abc9c","name":"Subway","address":"C.C. EL SALER","city":"Valencia","zipCode":"46012"}},{"type":"Feature","id":"","geometry":{"type":"Point","coordinates":[-1.2182279,38.1782081]},"properties":{"marker-symbol":"fast-food","marker-color":"1abc9c","name":"Subway","address":"C.C. EL THADER","city":"Murcia","zipCode":"30110"}},{"type":"Feature","id":"","geometry":{"type":"Point","coordinates":[-1.1298897,37.9834449]},"properties":{"marker-symbol":"fast-food","marker-color":"1abc9c","name":"Subway","address":"C.C. ESPACIO MEDITERRANEO","city":"Cartagena","zipCode":"30200"}},{"type":"Feature","id":"","geometry":{"type":"Point","coordinates":[-0.8949293,41.6613032]},"properties":{"marker-symbol":"fast-food","marker-color":"1abc9c","name":"Subway","address":"C.C. GRAN CASA","city":"Zaragoza","zipCode":"50003"}},{"type":"Feature","id":"","geometry":{"type":"Point","coordinates":[-0.4405986,39.5020648]},"properties":{"marker-symbol":"fast-food","marker-color":"1abc9c","name":"Subway","address":"C.C. HERON CITY","city":"Paterna","zipCode":"46980"}},{"type":"Feature","id":"","geometry":{"type":"Point","coordinates":[-16.7212525,28.0635569]},"properties":{"marker-symbol":"fast-food","marker-color":"1abc9c","name":"Subway","address":"C.C. MARINO. AVDA. MARITIMA, S/N","city":"Arona","zipCode":"38650"}},{"type":"Feature","id":"","geometry":{"type":"Point","coordinates":[-0.391769,39.479462]},"properties":{"marker-symbol":"fast-food","marker-color":"1abc9c","name":"Subway","address":"C.C. NUEVO CENTRO","city":"Valencia","zipCode":"46009"}},{"type":"Feature","id":"","geometry":{"type":"Point","coordinates":[-8.7212122,42.2311978]},"properties":{"marker-symbol":"fast-food","marker-color":"1abc9c","name":"Subway","address":"C.C. PLAZA ELIPTICA.","city":"Vigo","zipCode":"36203"}},{"type":"Feature","id":"","geometry":{"type":"Point","coordinates":[2.6040436,39.5659486]},"properties":{"marker-symbol":"fast-food","marker-color":"1abc9c","name":"Subway","address":"C.C. PORTO PI, LOCAL 4101.JOAN MIRO","city":"Palma","zipCode":"07015"}},{"type":"Feature","id":"","geometry":{"type":"Point","coordinates":[2.1820572,41.3859771]},"properties":{"marker-symbol":"fast-food","marker-color":"1abc9c","name":"Subway","address":"C.C. TRIANGLE","city":"Barcelona","zipCode":"08001"}},{"type":"Feature","id":"","geometry":{"type":"Point","coordinates":[-3.6944901,40.4271763]},"properties":{"marker-symbol":"fast-food","marker-color":"1abc9c","name":"Subway","address":"GENOVA, 9","city":"Madrid","zipCode":"28004"}},{"type":"Feature","id":"","geometry":{"type":"Point","coordinates":[-3.7047357,40.4338742]},"properties":{"marker-symbol":"fast-food","marker-color":"1abc9c","name":"Subway","address":"GLORIETA QUEVEDO, 5","city":"Madrid","zipCode":"28015"}},{"type":"Feature","id":"","geometry":{"type":"Point","coordinates":[-4.6201231,36.5432928]},"properties":{"marker-symbol":"fast-food","marker-color":"1abc9c","name":"Subway","address":"LAMO DE ESPINOSA, 3","city":"Fuengirola","zipCode":"29640"}},{"type":"Feature","id":"","geometry":{"type":"Point","coordinates":[-0.1054845,38.5362376]},"properties":{"marker-symbol":"fast-food","marker-color":"1abc9c","name":"Subway","address":"LONDRES, 4","city":"Benidorm","zipCode":"03503"}},{"type":"Feature","id":"","geometry":{"type":"Point","coordinates":[-3.7044347,40.4165827]},"properties":{"marker-symbol":"fast-food","marker-color":"1abc9c","name":"Subway","address":"MAYOR, 8","city":"Madrid","zipCode":"28013"}},{"type":"Feature","id":"","geometry":{"type":"Point","coordinates":[-3.5978471,37.1701448]},"properties":{"marker-symbol":"fast-food","marker-color":"1abc9c","name":"Bocatta","address":"ACERA DEL DARRO, 72","city":"Granada","zipCode":"18005"}},{"type":"Feature","id":"","geometry":{"type":"Point","coordinates":[-13.8651534,28.4517861]},"properties":{"marker-symbol":"fast-food","marker-color":"1abc9c","name":"Bocatta","address":"AEROPUERTO FUERTEVENTURA","city":"Puerto del Rosario","zipCode":"35610"}},{"type":"Feature","id":"","geometry":{"type":"Point","coordinates":[-17.7616075,28.6865803]},"properties":{"marker-symbol":"fast-food","marker-color":"1abc9c","name":"Bocatta","address":"ANSELMO PEREZ DE BRITO,71","city":"Santa Cruz de la Palma","zipCode":"38700"}},{"type":"Feature","id":"","geometry":{"type":"Point","coordinates":[-3.8097448,43.4576492]},"properties":{"marker-symbol":"fast-food","marker-color":"1abc9c","name":"Bocatta","address":"ATILANO RODRIGUEZ, 11","city":"CANTABRIA","zipCode":"39002"}},{"type":"Feature","id":"","geometry":{"type":"Point","coordinates":[-0.3857861999999841,39.4250481]},"properties":{"marker-symbol":"fast-food","marker-color":"1abc9c","name":"Bocatta","address":"AV. ALBUFERA, 46 C.C. SEDAVI","city":"Sedaví","zipCode":"46910"}},{"type":"Feature","id":"","geometry":{"type":"Point","coordinates":[-0.4253099,39.504176]},"properties":{"marker-symbol":"fast-food","marker-color":"1abc9c","name":"Bocatta","address":"Avda. DE LAS FERIAS S/N","city":"Valencia","zipCode":"46035"}},{"type":"Feature","id":"","geometry":{"type":"Point","coordinates":[2.1917018,41.40293]},"properties":{"marker-symbol":"fast-food","marker-color":"1abc9c","name":"Bocatta","address":"Avda. DIAGONAL, 280 (C.C.GLORIES)","city":"Barcelona","zipCode":"08018"}},{"type":"Feature","id":"","geometry":{"type":"Point","coordinates":[2.210447,41.5340573]},"properties":{"marker-symbol":"fast-food","marker-color":"1abc9c","name":"Bocatta","address":"Avda. LIBERTAT, 24","city":"MOLLET","zipCode":"08100"}},{"type":"Feature","id":"","geometry":{"type":"Point","coordinates":[-3.8017187,43.4708231]},"properties":{"marker-symbol":"fast-food","marker-color":"1abc9c","name":"Bocatta","address":"Avda. LOS CASTROS, S/N","city":"Santander","zipCode":"39005"}},{"type":"Feature","id":"","geometry":{"type":"Point","coordinates":[2.7555818,39.5288862]},"properties":{"marker-symbol":"fast-food","marker-color":"1abc9c","name":"Bocatta","address":"Avda. NACIONAL, 67, ESQ. MILAN","city":"Palma","zipCode":"07600"}},{"type":"Feature","id":"","geometry":{"type":"Point","coordinates":[1.9773362,41.2803456]},"properties":{"marker-symbol":"fast-food","marker-color":"1abc9c","name":"Bocatta","address":"Avda. SANTA MARIA,27","city":"Castelldefels","zipCode":"08860"}},{"type":"Feature","id":"","geometry":{"type":"Point","coordinates":[2.1742786,41.3840057]},"properties":{"marker-symbol":"fast-food","marker-color":"1abc9c","name":"Bocatta","address":"BOTERS, 6","city":"Barcelona","zipCode":"08002"}},{"type":"Feature","id":"","geometry":{"type":"Point","coordinates":[-1.8525626,39.0004011]},"properties":{"marker-symbol":"fast-food","marker-color":"1abc9c","name":"Bocatta","address":"C.C. ALBACENTER, ALCALDE CONANGLA","city":"Albacete","zipCode":"02001"}},{"type":"Feature","id":"","geometry":{"type":"Point","coordinates":[2.1699187,41.387917]},"properties":{"marker-symbol":"fast-food","marker-color":"1abc9c","name":"Bocatta","address":"C.C. ALCAMPO SAN ADRIA, AV. PLAY, S","city":"ST. ADRIA","zipCode":"08930"}},{"type":"Feature","id":"","geometry":{"type":"Point","coordinates":[-0.4714694,38.7123045]},"properties":{"marker-symbol":"fast-food","marker-color":"1abc9c","name":"Bocatta","address":"C.C. ALZAMORA,JUAN GIL ALBERT, 1 -","city":"Alcoy/Alcoi","zipCode":"03804"}},{"type":"Feature","id":"","geometry":{"type":"Point","coordinates":[-15.4300065,28.1248227]},"properties":{"marker-symbol":"fast-food","marker-color":"1abc9c","name":"Bocatta","address":"C.C. ANTIGUA, LOCAL 4, PLANTA BAJA","city":"Puerto del Rosario","zipCode":"35610"}},{"type":"Feature","id":"","geometry":{"type":"Point","coordinates":[-0.9160507,41.6578054]},"properties":{"marker-symbol":"fast-food","marker-color":"1abc9c","name":"Bocatta","address":"C.C. AUGUSTA. AVDA. NAVARRA, 180","city":"Zaragoza","zipCode":"50017"}},{"type":"Feature","id":"","geometry":{"type":"Point","coordinates":[-6.2216678,36.4744472]},"properties":{"marker-symbol":"fast-food","marker-color":"1abc9c","name":"Bocatta","address":"C.C. BAHIA SUR, PL. JAUJA, S/N","city":"San Fernando","zipCode":"11100"}},{"type":"Feature","id":"","geometry":{"type":"Point","coordinates":[-3.0202518,43.3206637]},"properties":{"marker-symbol":"fast-food","marker-color":"1abc9c","name":"Bocatta","address":"C.C. BALLONTI, LOCAL A 2ºB","city":"Portugalete","zipCode":"48920"}},{"type":"Feature","id":"","geometry":{"type":"Point","coordinates":[2.1699187,41.387917]},"properties":{"marker-symbol":"fast-food","marker-color":"1abc9c","name":"Bocatta","address":"C.C. BARICENTRO, LOCAL 3","city":"BARBER DEL VALLES","zipCode":"08210"}},{"type":"Feature","id":"","geometry":{"type":"Point","coordinates":[-2.8833333,43.2333333]},"properties":{"marker-symbol":"fast-food","marker-color":"1abc9c","name":"Bocatta","address":"C.C. BILBONDO-3, ZABALANDI, S/N","city":"Basauri","zipCode":"48970"}},{"type":"Feature","id":"","geometry":{"type":"Point","coordinates":[-0.4613582,39.4650522]},"properties":{"marker-symbol":"fast-food","marker-color":"1abc9c","name":"Bocatta","address":"C.C. BONAIRE, LOCAL I-034","city":"Aldaia","zipCode":"46960"}},{"type":"Feature","id":"","geometry":{"type":"Point","coordinates":[-15.4158343,28.10221]},"properties":{"marker-symbol":"fast-food","marker-color":"1abc9c","name":"Bocatta","address":"C.C. BOULEVAR, HURTADO MENDOZA, 1","city":"Palmas de Gran Canaria (Las)","zipCode":"35002"}},{"type":"Feature","id":"","geometry":{"type":"Point","coordinates":[-6.2926569,36.5296879]},"properties":{"marker-symbol":"fast-food","marker-color":"1abc9c","name":"Bocatta","address":"C.C. CARREFOUR JEREZ, LOCAL 26-27","city":"Jerez de la Frontera","zipCode":"11200"}},{"type":"Feature","id":"","geometry":{"type":"Point","coordinates":[-0.7742523,38.4774394]},"properties":{"marker-symbol":"fast-food","marker-color":"1abc9c","name":"Bocatta","address":"C.C. CARREFOUR, LOCAL 4","city":"Petrer","zipCode":"03610"}},{"type":"Feature","id":"","geometry":{"type":"Point","coordinates":[2.6496397,39.5955797]},"properties":{"marker-symbol":"fast-food","marker-color":"1abc9c","name":"Bocatta","address":"C.C. CASCAPISCOL,5","city":"Palma","zipCode":"07010"}},{"type":"Feature","id":"","geometry":{"type":"Point","coordinates":[2.2015347,41.3977365]},"properties":{"marker-symbol":"fast-food","marker-color":"1abc9c","name":"Bocatta","address":"C.C. CENTRE LA VILLA,ARQUITECTE SER","city":"Barcelona","zipCode":"08005"}},{"type":"Feature","id":"","geometry":{"type":"Point","coordinates":[-5.9962951,37.38264]},"properties":{"marker-symbol":"fast-food","marker-color":"1abc9c","name":"Bocatta","address":"C.C. CINEQUINTO, AV. MONTEQUINTO,","city":"Dos Hermanas","zipCode":"41700"}},{"type":"Feature","id":"","geometry":{"type":"Point","coordinates":[-15.4300065,28.1248227]},"properties":{"marker-symbol":"fast-food","marker-color":"1abc9c","name":"Bocatta","address":"C.C. DEILAND PLAZA, LOCAL 1-23","city":"LANZAROTE-PLAYA HONDA- S.BARTOLOME","zipCode":"35500"}},{"type":"Feature","id":"","geometry":{"type":"Point","coordinates":[2.1602596,41.3965575]},"properties":{"marker-symbol":"fast-food","marker-color":"1abc9c","name":"Bocatta","address":"C.C. DIAGONAL MAR, DIAGONAL, 3 - 35","city":"Barcelona","zipCode":"08019"}},{"type":"Feature","id":"","geometry":{"type":"Point","coordinates":[-5.9962951,37.38264]},"properties":{"marker-symbol":"fast-food","marker-color":"1abc9c","name":"Bocatta","address":"C.C. DIVERCENTRO, LOCAL 14","city":"Dos Hermanas","zipCode":"41700"}},{"type":"Feature","id":"","geometry":{"type":"Point","coordinates":[-4.6037231,37.8463341]},"properties":{"marker-symbol":"fast-food","marker-color":"1abc9c","name":"Bocatta","address":"C.C. EL ARCANGEL, ARCANGEL, S/N","city":"Córdoba","zipCode":"14010"}},{"type":"Feature","id":"","geometry":{"type":"Point","coordinates":[-2.6695545,42.8578701]},"properties":{"marker-symbol":"fast-food","marker-color":"1abc9c","name":"Bocatta","address":"C.C. EL BOULEVARD DE VITORIA-GASTEI","city":"Vitoria-Gasteiz","zipCode":"01013"}},{"type":"Feature","id":"","geometry":{"type":"Point","coordinates":[-2.4679217,36.8401638]},"properties":{"marker-symbol":"fast-food","marker-color":"1abc9c","name":"Bocatta","address":"C.C. EL COPO. LOCAL 109","city":"Ejido (El)","zipCode":"04700"}},{"type":"Feature","id":"","geometry":{"type":"Point","coordinates":[-4.1411406,36.7639478]},"properties":{"marker-symbol":"fast-food","marker-color":"1abc9c","name":"Bocatta","address":"C.C. EL INGENIO, JUAN CARLOS I, A-1","city":"Vélez-Málaga","zipCode":"29700"}},{"type":"Feature","id":"","geometry":{"type":"Point","coordinates":[-15.4317028,28.1375585]},"properties":{"marker-symbol":"fast-food","marker-color":"1abc9c","name":"Bocatta","address":"C.C. EL MUELLE, LOCAL 222, 2ª PLANT","city":"Palmas de Gran Canaria (Las)","zipCode":"35007"}},{"type":"Feature","id":"","geometry":{"type":"Point","coordinates":[-0.3350207,39.4013794]},"properties":{"marker-symbol":"fast-food","marker-color":"1abc9c","name":"Bocatta","address":"C.C. EL SALER, AUTOPISTA DEL SALER,","city":"Valencia","zipCode":"46013"}},{"type":"Feature","id":"","geometry":{"type":"Point","coordinates":[-4.7840706,41.6610009]},"properties":{"marker-symbol":"fast-food","marker-color":"1abc9c","name":"Bocatta","address":"C.C. EQUINOCIO, LOCAL A-14, P.ALTA","city":"Zaratán","zipCode":"47610"}},{"type":"Feature","id":"","geometry":{"type":"Point","coordinates":[-0.380721,39.4845265]},"properties":{"marker-symbol":"fast-food","marker-color":"1abc9c","name":"Bocatta","address":"C.C. ESPAI CAMPANAR, LOCAL A5 Y TA9","city":"Valencia","zipCode":"46009"}},{"type":"Feature","id":"","geometry":{"type":"Point","coordinates":[2.728219,39.6302142]},"properties":{"marker-symbol":"fast-food","marker-color":"1abc9c","name":"Bocatta","address":"C.C. FESTIVAL PARK, S/N","city":"Palma","zipCode":"07141"}},{"type":"Feature","id":"","geometry":{"type":"Point","coordinates":[-0.4277937,39.466685]},"properties":{"marker-symbol":"fast-food","marker-color":"1abc9c","name":"Bocatta","address":"C.C. GRAN TURIA, PZA. EUROPA, S/N","city":"Xirivella","zipCode":"46950"}},{"type":"Feature","id":"","geometry":{"type":"Point","coordinates":[-8.7199341,42.2282714]},"properties":{"marker-symbol":"fast-food","marker-color":"1abc9c","name":"Bocatta","address":"C.C. GRAN VIA","city":"Vigo","zipCode":"36204"}},{"type":"Feature","id":"","geometry":{"type":"Point","coordinates":[2.1229310999999598,41.3491194]},"properties":{"marker-symbol":"fast-food","marker-color":"1abc9c","name":"Bocatta","address":"C.C. GRAN VIA 2, LOCAL A-048","city":"HOSPITALET DE LLOBREGAT","zipCode":"08908"}},{"type":"Feature","id":"","geometry":{"type":"Point","coordinates":[2.1699187,41.387917]},"properties":{"marker-symbol":"fast-food","marker-color":"1abc9c","name":"Bocatta","address":"C.C. GRAN VIA 2, LOCAL A-048","city":"Hospitalet de Llobregat (L')","zipCode":"08908"}},{"type":"Feature","id":"","geometry":{"type":"Point","coordinates":[-0.4643906,38.4788189]},"properties":{"marker-symbol":"fast-food","marker-color":"1abc9c","name":"Bocatta","address":"C.C. GRAN VIA,PASAJE GANIVET, S/N","city":"Alicante/Alacant","zipCode":"03015"}},{"type":"Feature","id":"","geometry":{"type":"Point","coordinates":[-0.8651303,41.6852028]},"properties":{"marker-symbol":"fast-food","marker-color":"1abc9c","name":"Bocatta","address":"C.C. GRANCASA, LOCAL 216-217","city":"Zaragoza","zipCode":"50015"}},{"type":"Feature","id":"","geometry":{"type":"Point","coordinates":[2.196618,41.4378689]},"properties":{"marker-symbol":"fast-food","marker-color":"1abc9c","name":"Bocatta","address":"C.C. HERON CITY, ANDREU NIN, S/N","city":"Barcelona","zipCode":"08030"}},{"type":"Feature","id":"","geometry":{"type":"Point","coordinates":[-15.4463485,28.0987919]},"properties":{"marker-symbol":"fast-food","marker-color":"1abc9c","name":"Bocatta","address":"C.C. LA BALLENA, LOCAL 1-17","city":"Palmas de Gran Canaria (Las)","zipCode":"35013"}},{"type":"Feature","id":"","geometry":{"type":"Point","coordinates":[-3.7232005,37.8562031]},"properties":{"marker-symbol":"fast-food","marker-color":"1abc9c","name":"Bocatta","address":"C.C. LA LOMA, CTRA. N. 323 BAILEN","city":"Jaén","zipCode":"23009"}},{"type":"Feature","id":"","geometry":{"type":"Point","coordinates":[2.196618,41.4378689]},"properties":{"marker-symbol":"fast-food","marker-color":"1abc9c","name":"Bocatta","address":"C.C. LA MAQUINISTA, LOCAL B-1","city":"Barcelona","zipCode":"08030"}},{"type":"Feature","id":"","geometry":{"type":"Point","coordinates":[2.196618,41.4378689]},"properties":{"marker-symbol":"fast-food","marker-color":"1abc9c","name":"Bocatta","address":"C.C. LA MAQUINISTA, LOCAL C-48","city":"Barcelona","zipCode":"08030"}},{"type":"Feature","id":"","geometry":{"type":"Point","coordinates":[-4.433644,36.7910683]},"properties":{"marker-symbol":"fast-food","marker-color":"1abc9c","name":"Bocatta","address":"C.C. LA ROSALEDA,AVDA. SIMON BOLIVA","city":"Málaga","zipCode":"29011"}},{"type":"Feature","id":"","geometry":{"type":"Point","coordinates":[-0.7069658,38.2656883]},"properties":{"marker-symbol":"fast-food","marker-color":"1abc9c","name":"Bocatta","address":"C.C. L'ALJUB, LOCAL A-22, P. ALTA","city":"Elche/Elx","zipCode":"03201"}},{"type":"Feature","id":"","geometry":{"type":"Point","coordinates":[-15.474178700000039,28.1255452]},"properties":{"marker-symbol":"fast-food","marker-color":"1abc9c","name":"Bocatta","address":"C.C. LAS ARENAS, LOCAL T-18","city":"PALMAS DE GRAN CANARIA","zipCode":"35010"}},{"type":"Feature","id":"","geometry":{"type":"Point","coordinates":[-15.4741787,28.1255452]},"properties":{"marker-symbol":"fast-food","marker-color":"1abc9c","name":"Bocatta","address":"C.C. LAS ARENAS, LOCAL T-18","city":"Palmas de Gran Canaria (Las)","zipCode":"35010"}},{"type":"Feature","id":"","geometry":{"type":"Point","coordinates":[-1.1209121,37.9996146]},"properties":{"marker-symbol":"fast-food","marker-color":"1abc9c","name":"Bocatta","address":"C.C. LAS ATALAYAS, MOLINA DE SEGURA","city":"Murcia","zipCode":"30007"}},{"type":"Feature","id":"","geometry":{"type":"Point","coordinates":[-4.5057333,42.0048141]},"properties":{"marker-symbol":"fast-food","marker-color":"1abc9c","name":"Bocatta","address":"C.C. LAS HUERTAS, AVDA.MADRID, S/N","city":"Palencia","zipCode":"34004"}},{"type":"Feature","id":"","geometry":{"type":"Point","coordinates":[-5.6556545,43.5392721]},"properties":{"marker-symbol":"fast-food","marker-color":"1abc9c","name":"Bocatta","address":"C.C. LAS SALESAS, NUEVE DE MAYO, 2","city":"Oviedo","zipCode":"33202"}},{"type":"Feature","id":"","geometry":{"type":"Point","coordinates":[-5.999675,37.3768986]},"properties":{"marker-symbol":"fast-food","marker-color":"1abc9c","name":"Bocatta","address":"C.C. LOS ARCOS,AVDA.ANDALUCIA, S/N","city":"Sevilla","zipCode":"41006"}},{"type":"Feature","id":"","geometry":{"type":"Point","coordinates":[-8.3951235,43.3712857]},"properties":{"marker-symbol":"fast-food","marker-color":"1abc9c","name":"Bocatta","address":"C.C. LOS ROSALES,RONDA OUTERIO, S/N","city":"Coruña (A)","zipCode":"15001"}},{"type":"Feature","id":"","geometry":{"type":"Point","coordinates":[-3.6547195,40.3966009]},"properties":{"marker-symbol":"fast-food","marker-color":"1abc9c","name":"Bocatta","address":"C.C. MADRID SUR, PABLO NERUDA, S/N","city":"Madrid","zipCode":"28038"}},{"type":"Feature","id":"","geometry":{"type":"Point","coordinates":[2.4455818,41.5602897]},"properties":{"marker-symbol":"fast-food","marker-color":"1abc9c","name":"Bocatta","address":"C.C. MATARO PARK,CTRA.CIRERA, S/N","city":"Mataró","zipCode":"08304"}},{"type":"Feature","id":"","geometry":{"type":"Point","coordinates":[-2.9859775,43.2976934]},"properties":{"marker-symbol":"fast-food","marker-color":"1abc9c","name":"Bocatta","address":"C.C. MAX CENTER, Bº KAREAGA","city":"SAN VICENTE DE BARAKALDO, BARAKALDO","zipCode":"48903"}},{"type":"Feature","id":"","geometry":{"type":"Point","coordinates":[2.1699187,41.387917]},"properties":{"marker-symbol":"fast-food","marker-color":"1abc9c","name":"Bocatta","address":"C.C. MAX CENTER, LA FARGA","city":"Hospitalet de Llobregat (L')","zipCode":"08901"}},{"type":"Feature","id":"","geometry":{"type":"Point","coordinates":[-2.2531929,40.0517321]},"properties":{"marker-symbol":"fast-food","marker-color":"1abc9c","name":"Bocatta","address":"C.C. MIRADOR DE CUENCA,P.ALTA,L-107","city":"Cuenca","zipCode":"16003"}},{"type":"Feature","id":"","geometry":{"type":"Point","coordinates":[2.2267056,41.454582]},"properties":{"marker-symbol":"fast-food","marker-color":"1abc9c","name":"Bocatta","address":"C.C. MONTINGALA, OLOF PALME, S/N","city":"Badalona","zipCode":"08916"}},{"type":"Feature","id":"","geometry":{"type":"Point","coordinates":[-1.1257082,38.0471977]},"properties":{"marker-symbol":"fast-food","marker-color":"1abc9c","name":"Bocatta","address":"C.C. NUEVA CONDOMINA, LOCAL M-2","city":"Murcia","zipCode":"30110"}},{"type":"Feature","id":"","geometry":{"type":"Point","coordinates":[-0.380721,39.4845265]},"properties":{"marker-symbol":"fast-food","marker-color":"1abc9c","name":"Bocatta","address":"C.C. NUEVO CENTRO, PIO XII, 2-4-6","city":"Valencia","zipCode":"46009"}},{"type":"Feature","id":"","geometry":{"type":"Point","coordinates":[-5.7405139,43.4264758]},"properties":{"marker-symbol":"fast-food","marker-color":"1abc9c","name":"Bocatta","address":"C.C. PARQUE PRINCIPADO, LOCAL 87","city":"Siero","zipCode":"33510"}},{"type":"Feature","id":"","geometry":{"type":"Point","coordinates":[-3.7327191,40.3400009]},"properties":{"marker-symbol":"fast-food","marker-color":"1abc9c","name":"Bocatta","address":"C.C. PARQUESUR, GRAN BRETAÑA, S/N","city":"Leganés","zipCode":"28916"}},{"type":"Feature","id":"","geometry":{"type":"Point","coordinates":[-4.4902774,36.6867563]},"properties":{"marker-symbol":"fast-food","marker-color":"1abc9c","name":"Bocatta","address":"C.C. PLAZA MAYOR I, 63","city":"MURCIA","zipCode":"29004"}},{"type":"Feature","id":"","geometry":{"type":"Point","coordinates":[-0.3768049,39.4702393]},"properties":{"marker-symbol":"fast-food","marker-color":"1abc9c","name":"Bocatta","address":"C.C. PLAZA MAYOR. POL. RAFALCAID","city":"Gandia","zipCode":"46700"}},{"type":"Feature","id":"","geometry":{"type":"Point","coordinates":[-7.8653578,42.341251]},"properties":{"marker-symbol":"fast-food","marker-color":"1abc9c","name":"Bocatta","address":"C.C. PONTE VELLA, RIBERA SACRA, S/N","city":"Ourense","zipCode":"32003"}},{"type":"Feature","id":"","geometry":{"type":"Point","coordinates":[-3.0069397,43.3096349]},"properties":{"marker-symbol":"fast-food","marker-color":"1abc9c","name":"Bocatta","address":"C.C. PRYCA, CTRA.BARACALDO","city":"Sestao","zipCode":"48910"}},{"type":"Feature","id":"","geometry":{"type":"Point","coordinates":[-0.5834849,38.3392361]},"properties":{"marker-symbol":"fast-food","marker-color":"1abc9c","name":"Bocatta","address":"C.C. PUERTA DE ALICANTE","city":"Alicante/Alacant","zipCode":"03007"}},{"type":"Feature","id":"","geometry":{"type":"Point","coordinates":[-3.8553507,40.3570031]},"properties":{"marker-symbol":"fast-food","marker-color":"1abc9c","name":"Bocatta","address":"C.C. RIO ESTE, PARCELA 22, LOCAL 5","city":"Alcorcón","zipCode":"28922"}},{"type":"Feature","id":"","geometry":{"type":"Point","coordinates":[-0.038487,39.9876445]},"properties":{"marker-symbol":"fast-food","marker-color":"1abc9c","name":"Bocatta","address":"C.C. SALERA, LOCAL 05-06","city":"Castellón de la Plana/Castelló de l","zipCode":"12001"}},{"type":"Feature","id":"","geometry":{"type":"Point","coordinates":[-3.7995034,40.3484298]},"properties":{"marker-symbol":"fast-food","marker-color":"1abc9c","name":"Bocatta","address":"C.C. TRES AGUAS, B-133","city":"Alcorcón","zipCode":"28922"}},{"type":"Feature","id":"","geometry":{"type":"Point","coordinates":[-2.049934,43.2713821]},"properties":{"marker-symbol":"fast-food","marker-color":"1abc9c","name":"Bocatta","address":"C.C. USURBIL, LOCAL A, TERRAZA","city":"Usurbil","zipCode":"20170"}},{"type":"Feature","id":"","geometry":{"type":"Point","coordinates":[-3.8375413,43.4171199]},"properties":{"marker-symbol":"fast-food","marker-color":"1abc9c","name":"Bocatta","address":"C.C. VALLE REAL, ALDAI S/N","city":"Camargo","zipCode":"39600"}},{"type":"Feature","id":"","geometry":{"type":"Point","coordinates":[-4.7342204,41.6397534]},"properties":{"marker-symbol":"fast-food","marker-color":"1abc9c","name":"Bocatta","address":"C.C. VALLSUR, PLANTA 2, LOCAL 3-4","city":"Valladolid","zipCode":"47007"}},{"type":"Feature","id":"","geometry":{"type":"Point","coordinates":[-4.432357599999932,36.7091025]},"properties":{"marker-symbol":"fast-food","marker-color":"1abc9c","name":"Bocatta","address":"C.C. VIALIA ESTACION","city":"MÁLAGA","zipCode":"29002"}},{"type":"Feature","id":"","geometry":{"type":"Point","coordinates":[-4.4323576,36.7091025]},"properties":{"marker-symbol":"fast-food","marker-color":"1abc9c","name":"Bocatta","address":"C.C. VIALIA ESTACION","city":"Málaga","zipCode":"29002"}},{"type":"Feature","id":"","geometry":{"type":"Point","coordinates":[-3.9202906,40.2688395]},"properties":{"marker-symbol":"fast-food","marker-color":"1abc9c","name":"Bocatta","address":"C.C. XANADU,LOCAL L2, NIVEL INFERIO","city":"Arroyomolinos","zipCode":"28939"}},{"type":"Feature","id":"","geometry":{"type":"Point","coordinates":[2.1407688,41.4913697]},"properties":{"marker-symbol":"fast-food","marker-color":"1abc9c","name":"Bocatta","address":"CINES KURSAL, Pº DEL PONT, S/N","city":"Cerdanyola del Vallès","zipCode":"08290"}},{"type":"Feature","id":"","geometry":{"type":"Point","coordinates":[2.1731344,41.3864556]},"properties":{"marker-symbol":"fast-food","marker-color":"1abc9c","name":"Bocatta","address":"CONDAL, 32","city":"Barcelona","zipCode":"08002"}},{"type":"Feature","id":"","geometry":{"type":"Point","coordinates":[-0.3760008,39.4682503]},"properties":{"marker-symbol":"fast-food","marker-color":"1abc9c","name":"Bocatta","address":"CONVENTO SANTA CLARA, 7","city":"Valencia","zipCode":"46002"}},{"type":"Feature","id":"","geometry":{"type":"Point","coordinates":[2.8206399,41.9759372]},"properties":{"marker-symbol":"fast-food","marker-color":"1abc9c","name":"Bocatta","address":"CREU, 34, BAJOS","city":"Girona","zipCode":"17002"}},{"type":"Feature","id":"","geometry":{"type":"Point","coordinates":[-3.7003454,40.4166909]},"properties":{"marker-symbol":"fast-food","marker-color":"1abc9c","name":"Bocatta","address":"Ctra. PARLA-PINTO C.C. EL FERIAL","city":"Parla","zipCode":"28980"}},{"type":"Feature","id":"","geometry":{"type":"Point","coordinates":[-6.8994495,38.7216642]},"properties":{"marker-symbol":"fast-food","marker-color":"1abc9c","name":"Bocatta","address":"Ctra. VALVERDE, S/N, C.C.CONTINENTE","city":"Badajoz","zipCode":"06010"}},{"type":"Feature","id":"","geometry":{"type":"Point","coordinates":[-2.9422771,43.2615291]},"properties":{"marker-symbol":"fast-food","marker-color":"1abc9c","name":"Bocatta","address":"DOCTOR AREILZA, 28","city":"Bilbao","zipCode":"48011"}},{"type":"Feature","id":"","geometry":{"type":"Point","coordinates":[-1.6426768,42.814875]},"properties":{"marker-symbol":"fast-food","marker-color":"1abc9c","name":"Bocatta","address":"EST. AUTOBUSES. YANGUAS Y MIRANDA,2","city":"Pamplona/Iruña","zipCode":"31002"}},{"type":"Feature","id":"","geometry":{"type":"Point","coordinates":[-2.9319541,43.2600098]},"properties":{"marker-symbol":"fast-food","marker-color":"1abc9c","name":"Bocatta","address":"ESTACION ABANDO, HURTADO DE AMEZAGA","city":"Bilbao","zipCode":"48008"}},{"type":"Feature","id":"","geometry":{"type":"Point","coordinates":[-0.3760125,39.4690149]},"properties":{"marker-symbol":"fast-food","marker-color":"1abc9c","name":"Bocatta","address":"ESTACION NORTE S/N (RENFE)","city":"Valencia","zipCode":"46002"}},{"type":"Feature","id":"","geometry":{"type":"Point","coordinates":[-0.37601250000000164,39.4690149]},"properties":{"marker-symbol":"fast-food","marker-color":"1abc9c","name":"Bocatta","address":"ESTACION NORTE S/N (RENFE)","city":"Valencia","zipCode":"46002"}},{"type":"Feature","id":"","geometry":{"type":"Point","coordinates":[-0.4947287,38.3450304]},"properties":{"marker-symbol":"fast-food","marker-color":"1abc9c","name":"Bocatta","address":"ESTACION RENFE, AVDA. SALAMANCA, 1","city":"Alicante/Alacant","zipCode":"03003"}},{"type":"Feature","id":"","geometry":{"type":"Point","coordinates":[2.1869595,41.4302708]},"properties":{"marker-symbol":"fast-food","marker-color":"1abc9c","name":"Bocatta","address":"FABRA I PUIG, 54","city":"Barcelona","zipCode":"08030"}},{"type":"Feature","id":"","geometry":{"type":"Point","coordinates":[2.2477165,41.4503523]},"properties":{"marker-symbol":"fast-food","marker-color":"1abc9c","name":"Bocatta","address":"FRANCESC LAYRET, 97","city":"Badalona","zipCode":"08911"}},{"type":"Feature","id":"","geometry":{"type":"Point","coordinates":[2.247716500000024,41.4503523]},"properties":{"marker-symbol":"fast-food","marker-color":"1abc9c","name":"Bocatta","address":"FRANCESC LAYRET, 97","city":"BADALONA","zipCode":"08911"}},{"type":"Feature","id":"","geometry":{"type":"Point","coordinates":[-1.1309324,37.9812861]},"properties":{"marker-symbol":"fast-food","marker-color":"1abc9c","name":"Bocatta","address":"HERNANDEZ DEL AGUILA, 4","city":"Murcia","zipCode":"30002"}},{"type":"Feature","id":"","geometry":{"type":"Point","coordinates":[2.8238304,41.9857533]},"properties":{"marker-symbol":"fast-food","marker-color":"1abc9c","name":"Bocatta","address":"INDEPENDENCIA, 16","city":"Girona","zipCode":"17001"}},{"type":"Feature","id":"","geometry":{"type":"Point","coordinates":[2.82383040000002,41.9857533]},"properties":{"marker-symbol":"fast-food","marker-color":"1abc9c","name":"Bocatta","address":"INDEPENDENCIA, 16","city":"GIRONA","zipCode":"17001"}},{"type":"Feature","id":"","geometry":{"type":"Point","coordinates":[-6.988605,38.8688051]},"properties":{"marker-symbol":"fast-food","marker-color":"1abc9c","name":"Bocatta","address":"JOSE MARIA ALCARAZ Y ALENDA, S/N","city":"Badajoz","zipCode":"06011"}},{"type":"Feature","id":"","geometry":{"type":"Point","coordinates":[-6.988605000000007,38.8688051]},"properties":{"marker-symbol":"fast-food","marker-color":"1abc9c","name":"Bocatta","address":"JOSE MARIA ALCARAZ Y ALENDA, S/N","city":"BADAJOZ","zipCode":"06011"}},{"type":"Feature","id":"","geometry":{"type":"Point","coordinates":[-0.0370815,39.9849069]},"properties":{"marker-symbol":"fast-food","marker-color":"1abc9c","name":"Bocatta","address":"MAYOR, 28","city":"Castellón de la Plana/Castelló de l","zipCode":"12001"}},{"type":"Feature","id":"","geometry":{"type":"Point","coordinates":[-2.9267349,43.2611504]},"properties":{"marker-symbol":"fast-food","marker-color":"1abc9c","name":"Bocatta","address":"NAVARRA, 12","city":"Bilbao","zipCode":"48001"}},{"type":"Feature","id":"","geometry":{"type":"Point","coordinates":[-3.6243133,37.1697289]},"properties":{"marker-symbol":"fast-food","marker-color":"1abc9c","name":"Bocatta","address":"NEPTUNO 1 C.C. ARABIAL","city":"Granada","zipCode":"18004"}},{"type":"Feature","id":"","geometry":{"type":"Point","coordinates":[-3.62431330000004,37.1697289]},"properties":{"marker-symbol":"fast-food","marker-color":"1abc9c","name":"Bocatta","address":"NEPTUNO 1 C.C. ARABIAL","city":"GRANADA","zipCode":"18004"}},{"type":"Feature","id":"","geometry":{"type":"Point","coordinates":[-5.9962951,37.38264]},"properties":{"marker-symbol":"fast-food","marker-color":"1abc9c","name":"Bocatta","address":"P. CIAL. ALJARAFE, LOCAL 4","city":"Tomares","zipCode":"41941"}},{"type":"Feature","id":"","geometry":{"type":"Point","coordinates":[-3.6471162,40.4604421]},"properties":{"marker-symbol":"fast-food","marker-color":"1abc9c","name":"Bocatta","address":"P.F. JUAN CARLOS I, CAMPO NACIONES","city":"Madrid","zipCode":"28043"}},{"type":"Feature","id":"","geometry":{"type":"Point","coordinates":[1.245021500000007,41.1183955]},"properties":{"marker-symbol":"fast-food","marker-color":"1abc9c","name":"Bocatta","address":"PERE MARTELL, 1","city":"Tarragona","zipCode":"43001"}},{"type":"Feature","id":"","geometry":{"type":"Point","coordinates":[-6.9499686,37.2585509]},"properties":{"marker-symbol":"fast-food","marker-color":"1abc9c","name":"Bocatta","address":"PL. QUINTERO BAEZ, 1","city":"Huelva","zipCode":"21001"}},{"type":"Feature","id":"","geometry":{"type":"Point","coordinates":[-1.9750575,43.3221648]},"properties":{"marker-symbol":"fast-food","marker-color":"1abc9c","name":"Bocatta","address":"PL.PINARES, 1","city":"Donostia-San Sebastián","zipCode":"20001"}},{"type":"Feature","id":"","geometry":{"type":"Point","coordinates":[-1.1293994,37.9859586]},"properties":{"marker-symbol":"fast-food","marker-color":"1abc9c","name":"Bocatta","address":"PLATERIA, 50","city":"Murcia","zipCode":"30001"}},{"type":"Feature","id":"","geometry":{"type":"Point","coordinates":[-5.6634805,43.539256]},"properties":{"marker-symbol":"fast-food","marker-color":"1abc9c","name":"Bocatta","address":"PZA. 6 DE AGOSTO, 9","city":"Gijón","zipCode":"33206"}},{"type":"Feature","id":"","geometry":{"type":"Point","coordinates":[2.8111496,41.98377]},"properties":{"marker-symbol":"fast-food","marker-color":"1abc9c","name":"Bocatta","address":"PZA. CATALUÑA, 21","city":"Girona","zipCode":"17002"}},{"type":"Feature","id":"","geometry":{"type":"Point","coordinates":[3.83578,40.0012171]},"properties":{"marker-symbol":"fast-food","marker-color":"1abc9c","name":"Bocatta","address":"PZA. DEL BORNE, 18","city":"Ciutadella de Menorca","zipCode":"07760"}},{"type":"Feature","id":"","geometry":{"type":"Point","coordinates":[-2.925199,43.2584676]},"properties":{"marker-symbol":"fast-food","marker-color":"1abc9c","name":"Bocatta","address":"PZA. NUEVA, 7","city":"Bilbao","zipCode":"48002"}},{"type":"Feature","id":"","geometry":{"type":"Point","coordinates":[-0.3758697,39.4742827]},"properties":{"marker-symbol":"fast-food","marker-color":"1abc9c","name":"Bocatta","address":"PZA. REINA, 7-9","city":"Valencia","zipCode":"46001"}},{"type":"Feature","id":"","geometry":{"type":"Point","coordinates":[2.1772273,41.3829347]},"properties":{"marker-symbol":"fast-food","marker-color":"1abc9c","name":"Bocatta","address":"PZA. SAN JAIME, 6","city":"Barcelona","zipCode":"08002"}},{"type":"Feature","id":"","geometry":{"type":"Point","coordinates":[-3.3955927,37.0948341]},"properties":{"marker-symbol":"fast-food","marker-color":"1abc9c","name":"Bocatta","address":"PZA.ANDALUCIA, EDIF.DORNAJO, 8-9","city":"MONACHIL - SIERRA NEVADA","zipCode":"18196"}},{"type":"Feature","id":"","geometry":{"type":"Point","coordinates":[-7.5665245,43.0232391]},"properties":{"marker-symbol":"fast-food","marker-color":"1abc9c","name":"Bocatta","address":"PZA.VIANA DO CASTELO, 3","city":"Lugo","zipCode":"27003"}},{"type":"Feature","id":"","geometry":{"type":"Point","coordinates":[-7.566524500000014,43.0232391]},"properties":{"marker-symbol":"fast-food","marker-color":"1abc9c","name":"Bocatta","address":"PZA.VIANA DO CASTELO, 3","city":"LUGO","zipCode":"27003"}},{"type":"Feature","id":"","geometry":{"type":"Point","coordinates":[2.1618507,41.3924495]},"properties":{"marker-symbol":"fast-food","marker-color":"1abc9c","name":"Bocatta","address":"RAMBLA CATALUÑA, 80","city":"Barcelona","zipCode":"08008"}},{"type":"Feature","id":"","geometry":{"type":"Point","coordinates":[2.1723707,41.3818895]},"properties":{"marker-symbol":"fast-food","marker-color":"1abc9c","name":"Bocatta","address":"RAMBLA, 89","city":"Barcelona","zipCode":"08002"}},{"type":"Feature","id":"","geometry":{"type":"Point","coordinates":[2.2098197,41.4511684]},"properties":{"marker-symbol":"fast-food","marker-color":"1abc9c","name":"Bocatta","address":"RBLA. SAN SEBASTIAN, 7 BAJOS","city":"SANTA COLOMA","zipCode":"08921"}},{"type":"Feature","id":"","geometry":{"type":"Point","coordinates":[2.1631068,41.3787171]},"properties":{"marker-symbol":"fast-food","marker-color":"1abc9c","name":"Bocatta","address":"RDA. SAN ANDONI, 1","city":"Barcelona","zipCode":"08001"}},{"type":"Feature","id":"","geometry":{"type":"Point","coordinates":[-3.6009022,37.1727337]},"properties":{"marker-symbol":"fast-food","marker-color":"1abc9c","name":"Bocatta","address":"RECOGIDAS, 7","city":"Granada","zipCode":"18005"}},{"type":"Feature","id":"","geometry":{"type":"Point","coordinates":[-8.398254,43.3705363]},"properties":{"marker-symbol":"fast-food","marker-color":"1abc9c","name":"Bocatta","address":"RIEGO DE AGUA, 31","city":"Coruña (A)","zipCode":"15001"}},{"type":"Feature","id":"","geometry":{"type":"Point","coordinates":[2.163106800000037,41.3787171]},"properties":{"marker-symbol":"fast-food","marker-color":"1abc9c","name":"Bocatta","address":"RONDA SAN ANDONI, 1","city":"BARCELONA","zipCode":"08001"}},{"type":"Feature","id":"","geometry":{"type":"Point","coordinates":[2.1640426,41.3843632]},"properties":{"marker-symbol":"fast-food","marker-color":"1abc9c","name":"Bocatta","address":"RONDA SAN ANTONIO, 90","city":"Barcelona","zipCode":"08001"}},{"type":"Feature","id":"","geometry":{"type":"Point","coordinates":[-3.813687,43.4623194]},"properties":{"marker-symbol":"fast-food","marker-color":"1abc9c","name":"Bocatta","address":"RUBIO, 14","city":"Santander","zipCode":"39001"}},{"type":"Feature","id":"","geometry":{"type":"Point","coordinates":[2.0820357,41.4696453]},"properties":{"marker-symbol":"fast-food","marker-color":"1abc9c","name":"Bocatta","address":"RUBI-ST.CUGAT, KM.4 C.C. SANT CUGAT","city":"Sant Cugat del Vallès","zipCode":"08080"}},{"type":"Feature","id":"","geometry":{"type":"Point","coordinates":[2.082035700000006,41.4696453]},"properties":{"marker-symbol":"fast-food","marker-color":"1abc9c","name":"Bocatta","address":"RUBI-ST.CUGAT, KM.4 C.C. SANT CUGAT","city":"Sant Cugat del Vallès","zipCode":"08080"}},{"type":"Feature","id":"","geometry":{"type":"Point","coordinates":[-0.4833853,38.3452393]},"properties":{"marker-symbol":"fast-food","marker-color":"1abc9c","name":"Bocatta","address":"SAN JOSE, 2","city":"Alicante/Alacant","zipCode":"03007"}},{"type":"Feature","id":"","geometry":{"type":"Point","coordinates":[-0.1361106,38.5371036]},"properties":{"marker-symbol":"fast-food","marker-color":"1abc9c","name":"Bocatta","address":"SAN PEDRO, 26","city":"Benidorm","zipCode":"03500"}},{"type":"Feature","id":"","geometry":{"type":"Point","coordinates":[-2.6990558,42.8341187]},"properties":{"marker-symbol":"fast-food","marker-color":"1abc9c","name":"Bocatta","address":"SAN PRUDENCIO, 22-24","city":"Vitoria-Gasteiz","zipCode":"01055"}},{"type":"Feature","id":"","geometry":{"type":"Point","coordinates":[2.1711816,41.3850454]},"properties":{"marker-symbol":"fast-food","marker-color":"1abc9c","name":"Bocatta","address":"SANTA ANA, 11","city":"Barcelona","zipCode":"08002"}},{"type":"Feature","id":"","geometry":{"type":"Point","coordinates":[-1.8554816,38.9925371]},"properties":{"marker-symbol":"fast-food","marker-color":"1abc9c","name":"Bocatta","address":"TESIFONE GALLEGO, 7","city":"Albacete","zipCode":"02002"}},{"type":"Feature","id":"","geometry":{"type":"Point","coordinates":[-1.6563314,42.81473]},"properties":{"marker-symbol":"fast-food","marker-color":"1abc9c","name":"Bocatta","address":"TRAV. BAYONA, 3","city":"Pamplona/Iruña","zipCode":"31011"}},{"type":"Feature","id":"","geometry":{"type":"Point","coordinates":[2.152851,41.3983892]},"properties":{"marker-symbol":"fast-food","marker-color":"1abc9c","name":"Bocatta","address":"TRAVESERA DE GRACIA, 101","city":"Barcelona","zipCode":"08006"}},{"type":"Feature","id":"","geometry":{"type":"Point","coordinates":[2.6485611,39.5715411]},"properties":{"marker-symbol":"fast-food","marker-color":"1abc9c","name":"Bocatta","address":"UNIO, 10","city":"Palma","zipCode":"07001"}}]}