{"type":"FeatureCollection","features":[{"type":"Feature","id":"","geometry":{"type":"Point","coordinates":[-7.0079623,38.8818086]},"properties":{"marker-symbol":"bar","marker-color":"34495e","name":"Brasería Los Duendes","address":"Avda. ELVAS, S/N","city":"Badajoz","zipCode":"06006"}},{"type":"Feature","id":"","geometry":{"type":"Point","coordinates":[-6.3438929,38.9164991]},"properties":{"marker-symbol":"bar","marker-color":"34495e","name":"Brasería Los Duendes","address":"BERZOCANA, 1","city":"Mérida","zipCode":"06800"}},{"type":"Feature","id":"","geometry":{"type":"Point","coordinates":[-6.3456061,38.9158586]},"properties":{"marker-symbol":"bar","marker-color":"34495e","name":"Brasería Los Duendes","address":"C.C. EL FORO. AVDA. PORTUGAL, S/N","city":"Mérida","zipCode":"06800"}},{"type":"Feature","id":"","geometry":{"type":"Point","coordinates":[-5.8775964,38.9857886]},"properties":{"marker-symbol":"bar","marker-color":"34495e","name":"Brasería Los Duendes","address":"C.C. LAS CUMBRES","city":"Don Benito","zipCode":"06400"}},{"type":"Feature","id":"","geometry":{"type":"Point","coordinates":[-0.881287,41.6516619]},"properties":{"marker-symbol":"bar","marker-color":"34495e","name":"Giros Griego","address":"Avda. DE LA INDEPENDENCIA","city":"Zaragoza","zipCode":"50001"}},{"type":"Feature","id":"","geometry":{"type":"Point","coordinates":[1.2027651,41.1316598]},"properties":{"marker-symbol":"bar","marker-color":"34495e","name":"Giros Griego","address":"C.C. LES GAVARRES.CTRA.REUS, KM.4,5","city":"Tarragona","zipCode":"43006"}},{"type":"Feature","id":"","geometry":{"type":"Point","coordinates":[-0.894494,41.6411117]},"properties":{"marker-symbol":"bar","marker-color":"34495e","name":"Giros Griego","address":"FERNANDO EL CATOLICO","city":"Zaragoza","zipCode":"50006"}},{"type":"Feature","id":"","geometry":{"type":"Point","coordinates":[-0.9020843,41.6537699]},"properties":{"marker-symbol":"bar","marker-color":"34495e","name":"Giros Griego","address":"Pso. DE CALANDA (BARRIO DELICIAS)","city":"Zaragoza","zipCode":"50010"}},{"type":"Feature","id":"","geometry":{"type":"Point","coordinates":[-3.7003454,40.4166909]},"properties":{"marker-symbol":"bar","marker-color":"34495e","name":"PASTA CITY. Todos los sabores de Italia","address":"C.C. ALCALA MAGNA,LOC.81","city":"Alcalá de Henares","zipCode":"28800"}},{"type":"Feature","id":"","geometry":{"type":"Point","coordinates":[-3.3011494,40.4333839]},"properties":{"marker-symbol":"bar","marker-color":"34495e","name":"PASTA CITY. Todos los sabores de Italia","address":"C.C. Alcalá Norte","city":"Madrid","zipCode":"28027"}},{"type":"Feature","id":"","geometry":{"type":"Point","coordinates":[-6.1371725,36.6865618]},"properties":{"marker-symbol":"bar","marker-color":"34495e","name":"PASTA CITY. Todos los sabores de Italia","address":"C.C. AREA SUR, LOC. T-13","city":"Jerez de la Frontera","zipCode":"11400"}},{"type":"Feature","id":"","geometry":{"type":"Point","coordinates":[-2.9825559,43.3341353]},"properties":{"marker-symbol":"bar","marker-color":"34495e","name":"PASTA CITY. Todos los sabores de Italia","address":"C.C. ARTEA, LOCAL A3","city":"Leioa","zipCode":"48940"}},{"type":"Feature","id":"","geometry":{"type":"Point","coordinates":[1.8629309,41.7275587]},"properties":{"marker-symbol":"bar","marker-color":"34495e","name":"PASTA CITY. Todos los sabores de Italia","address":"C.C. BAGES CENTRE-ALVAR ALTO, S/N","city":"Manresa","zipCode":"08240"}},{"type":"Feature","id":"","geometry":{"type":"Point","coordinates":[-0.4613582,39.4650522]},"properties":{"marker-symbol":"bar","marker-color":"34495e","name":"PASTA CITY. Todos los sabores de Italia","address":"C.C. BONAIRE,LOCAL 772","city":"Aldaia","zipCode":"46960"}},{"type":"Feature","id":"","geometry":{"type":"Point","coordinates":[2.1602596,41.3965575]},"properties":{"marker-symbol":"bar","marker-color":"34495e","name":"PASTA CITY. Todos los sabores de Italia","address":"C.C. DIAGONAL MAR-AV.DIAGONAL, 3","city":"Barcelona","zipCode":"08019"}},{"type":"Feature","id":"","geometry":{"type":"Point","coordinates":[-1.9685826,40.0261426]},"properties":{"marker-symbol":"bar","marker-color":"34495e","name":"PASTA CITY. Todos los sabores de Italia","address":"C.C. EL MIRADOR, LOCAL 103","city":"Cuenca","zipCode":"16004"}},{"type":"Feature","id":"","geometry":{"type":"Point","coordinates":[-0.3607137,39.4496491]},"properties":{"marker-symbol":"bar","marker-color":"34495e","name":"PASTA CITY. Todos los sabores de Italia","address":"C.C. EL SALER,LOCAL A-17","city":"Valencia","zipCode":"46013"}},{"type":"Feature","id":"","geometry":{"type":"Point","coordinates":[-3.8808034,40.4731888]},"properties":{"marker-symbol":"bar","marker-color":"34495e","name":"PASTA CITY. Todos los sabores de Italia","address":"C.C. EQUINOCCIO-FRESA,S/N LOC.5","city":"Majadahonda","zipCode":"28220"}},{"type":"Feature","id":"","geometry":{"type":"Point","coordinates":[2.1806423,41.436921]},"properties":{"marker-symbol":"bar","marker-color":"34495e","name":"PASTA CITY. Todos los sabores de Italia","address":"C.C. GLORIES LOC.B-104","city":"Barcelona","zipCode":"08016"}},{"type":"Feature","id":"","geometry":{"type":"Point","coordinates":[-2.6288523,36.7637909]},"properties":{"marker-symbol":"bar","marker-color":"34495e","name":"PASTA CITY. Todos los sabores de Italia","address":"C.C. GRAN PLAZA,LOCAL 16","city":"Roquetas de Mar","zipCode":"04740"}},{"type":"Feature","id":"","geometry":{"type":"Point","coordinates":[-4.7743365,36.5194999]},"properties":{"marker-symbol":"bar","marker-color":"34495e","name":"PASTA CITY. Todos los sabores de Italia","address":"C.C. LA CAÑADA,LOCAL 156","city":"Marbella","zipCode":"29600"}},{"type":"Feature","id":"","geometry":{"type":"Point","coordinates":[2.196618,41.4378689]},"properties":{"marker-symbol":"bar","marker-color":"34495e","name":"PASTA CITY. Todos los sabores de Italia","address":"C.C. LA MAQUINISTA,LOC.C43B","city":"Barcelona","zipCode":"08030"}},{"type":"Feature","id":"","geometry":{"type":"Point","coordinates":[-0.038487,39.9876445]},"properties":{"marker-symbol":"bar","marker-color":"34495e","name":"PASTA CITY. Todos los sabores de Italia","address":"C.C. LA SALERA, LOC. A-10","city":"Castellón de la Plana/Castelló de l","zipCode":"12001"}},{"type":"Feature","id":"","geometry":{"type":"Point","coordinates":[2.0704325,41.3556129]},"properties":{"marker-symbol":"bar","marker-color":"34495e","name":"PASTA CITY. Todos los sabores de Italia","address":"C.C. LLOBREGAT CENTRE, LOCAL CO8","city":"Cornellà de Llobregat","zipCode":"08940"}},{"type":"Feature","id":"","geometry":{"type":"Point","coordinates":[2.2507317,41.4518333]},"properties":{"marker-symbol":"bar","marker-color":"34495e","name":"PASTA CITY. Todos los sabores de Italia","address":"C.C. MAGIC BADALONA, LOCAL A4 P.1","city":"Badalona","zipCode":"08911"}},{"type":"Feature","id":"","geometry":{"type":"Point","coordinates":[-2.4462083,36.8528829]},"properties":{"marker-symbol":"bar","marker-color":"34495e","name":"PASTA CITY. Todos los sabores de Italia","address":"C.C. MEDITERRANEO","city":"Almería","zipCode":"04009"}},{"type":"Feature","id":"","geometry":{"type":"Point","coordinates":[-3.6243133,37.1697289]},"properties":{"marker-symbol":"bar","marker-color":"34495e","name":"PASTA CITY. Todos los sabores de Italia","address":"C.C. NEPTUNO,ARABIAL,S/N,LOC.6","city":"Granada","zipCode":"18004"}},{"type":"Feature","id":"","geometry":{"type":"Point","coordinates":[-1.1222081,37.9865]},"properties":{"marker-symbol":"bar","marker-color":"34495e","name":"PASTA CITY. Todos los sabores de Italia","address":"C.C. NUEVA CONDOMINA","city":"Murcia","zipCode":"30110"}},{"type":"Feature","id":"","geometry":{"type":"Point","coordinates":[2.1699187,41.387917]},"properties":{"marker-symbol":"bar","marker-color":"34495e","name":"PASTA CITY. Todos los sabores de Italia","address":"C.C. PARC VALLES,LOCAL A5","city":"Terrassa","zipCode":"08940"}},{"type":"Feature","id":"","geometry":{"type":"Point","coordinates":[-4.4929809,36.6748624]},"properties":{"marker-symbol":"bar","marker-color":"34495e","name":"PASTA CITY. Todos los sabores de Italia","address":"C.C. PLAZA MAYOR, LOCAL 31","city":"Málaga","zipCode":"29004"}},{"type":"Feature","id":"","geometry":{"type":"Point","coordinates":[-1.1257082,38.0471977]},"properties":{"marker-symbol":"bar","marker-color":"34495e","name":"PASTA CITY. Todos los sabores de Italia","address":"C.C. THADER, LOCAL P55","city":"Murcia","zipCode":"30110"}},{"type":"Feature","id":"","geometry":{"type":"Point","coordinates":[-3.7995034,40.3484298]},"properties":{"marker-symbol":"bar","marker-color":"34495e","name":"PASTA CITY. Todos los sabores de Italia","address":"C.C. Tres Aguas","city":"Alcorcón","zipCode":"28922"}},{"type":"Feature","id":"","geometry":{"type":"Point","coordinates":[-3.9202906,40.2688395]},"properties":{"marker-symbol":"bar","marker-color":"34495e","name":"PASTA CITY. Todos los sabores de Italia","address":"C.C. XANADU, LOCAL 238","city":"Arroyomolinos","zipCode":"28939"}},{"type":"Feature","id":"","geometry":{"type":"Point","coordinates":[-3.5711466,40.4678932]},"properties":{"marker-symbol":"bar","marker-color":"34495e","name":"Döner Kebap Istanbul","address":"Avda. DE LOS ANDES, 25 - LOCAL 2","city":"Madrid","zipCode":"28042"}},{"type":"Feature","id":"","geometry":{"type":"Point","coordinates":[-6.1633042,36.6765542]},"properties":{"marker-symbol":"bar","marker-color":"34495e","name":"Döner Kebap Istanbul","address":"C.C. AREA SUR, LOCAL T11. CTRA. A-6","city":"Jerez de la Frontera","zipCode":"11408"}},{"type":"Feature","id":"","geometry":{"type":"Point","coordinates":[-3.0202518,43.3206637]},"properties":{"marker-symbol":"bar","marker-color":"34495e","name":"Döner Kebap Istanbul","address":"C.C. BALLONTI. AVDA. BALLONTI, 1","city":"Portugalete","zipCode":"48920"}},{"type":"Feature","id":"","geometry":{"type":"Point","coordinates":[-5.7818324,43.226638]},"properties":{"marker-symbol":"bar","marker-color":"34495e","name":"Döner Kebap Istanbul","address":"C.C. CAUDALIA. AVDA. CAMINO, 1","city":"Mieres","zipCode":"33611"}},{"type":"Feature","id":"","geometry":{"type":"Point","coordinates":[-7.0159446,38.8887334]},"properties":{"marker-symbol":"bar","marker-color":"34495e","name":"Döner Kebap Istanbul","address":"C.C. CONQUISTADORES, LOCAL A-5","city":"Badajoz","zipCode":"06006"}},{"type":"Feature","id":"","geometry":{"type":"Point","coordinates":[-3.5863313,40.5233326]},"properties":{"marker-symbol":"bar","marker-color":"34495e","name":"Döner Kebap Istanbul","address":"C.C. DIVERSIA","city":"Alcobendas","zipCode":"28108"}},{"type":"Feature","id":"","geometry":{"type":"Point","coordinates":[-3.6471162,40.4604421]},"properties":{"marker-symbol":"bar","marker-color":"34495e","name":"Döner Kebap Istanbul","address":"C.C. DREAMS PALACIO DE HIELO, L. 34","city":"Madrid","zipCode":"28043"}},{"type":"Feature","id":"","geometry":{"type":"Point","coordinates":[-4.1411406,36.7639478]},"properties":{"marker-symbol":"bar","marker-color":"34495e","name":"Döner Kebap Istanbul","address":"C.C. EL INGENIO, LOCAL 12-A","city":"Vélez-Málaga","zipCode":"29700"}},{"type":"Feature","id":"","geometry":{"type":"Point","coordinates":[-15.4741787,28.1255452]},"properties":{"marker-symbol":"bar","marker-color":"34495e","name":"Döner Kebap Istanbul","address":"C.C. EL MUELLE, LOCAL 216","city":"Palmas de Gran Canaria (Las)","zipCode":"35010"}},{"type":"Feature","id":"","geometry":{"type":"Point","coordinates":[-6.5996963,42.4982568]},"properties":{"marker-symbol":"bar","marker-color":"34495e","name":"Döner Kebap Istanbul","address":"C.C. EL ROSAL. LOCAL 226","city":"Ponferrada","zipCode":"24400"}},{"type":"Feature","id":"","geometry":{"type":"Point","coordinates":[-0.3607137,39.4496491]},"properties":{"marker-symbol":"bar","marker-color":"34495e","name":"Döner Kebap Istanbul","address":"C.C. EL SALER, 1ª PLANTA LOCAL 10","city":"Valencia","zipCode":"46013"}},{"type":"Feature","id":"","geometry":{"type":"Point","coordinates":[-4.7840706,41.6610009]},"properties":{"marker-symbol":"bar","marker-color":"34495e","name":"Döner Kebap Istanbul","address":"C.C. EQUINOCCIO PARK, LOCAL 17","city":"Zaratán","zipCode":"47610"}},{"type":"Feature","id":"","geometry":{"type":"Point","coordinates":[-5.5892992,42.604516]},"properties":{"marker-symbol":"bar","marker-color":"34495e","name":"Döner Kebap Istanbul","address":"C.C. ESPACIO LEON, LOCAL 9 PTA. 3","city":"León","zipCode":"24010"}},{"type":"Feature","id":"","geometry":{"type":"Point","coordinates":[-3.1592219,40.6258688]},"properties":{"marker-symbol":"bar","marker-color":"34495e","name":"Döner Kebap Istanbul","address":"C.C. FERIAL PLAZA","city":"Guadalajara","zipCode":"19002"}},{"type":"Feature","id":"","geometry":{"type":"Point","coordinates":[-3.7612856,40.3626396]},"properties":{"marker-symbol":"bar","marker-color":"34495e","name":"Döner Kebap Istanbul","address":"C.C. ISLAZUL","city":"Madrid","zipCode":"28054"}},{"type":"Feature","id":"","geometry":{"type":"Point","coordinates":[-3.6081631,37.2226455]},"properties":{"marker-symbol":"bar","marker-color":"34495e","name":"Döner Kebap Istanbul","address":"C.C. KINEPOLIS GRANADA, LOCAL 6","city":"Pulianas","zipCode":"18197"}},{"type":"Feature","id":"","geometry":{"type":"Point","coordinates":[-3.3338547,40.5105476]},"properties":{"marker-symbol":"bar","marker-color":"34495e","name":"Döner Kebap Istanbul","address":"C.C. LOS CUADERNILLOS","city":"Alcalá de Henares","zipCode":"28805"}},{"type":"Feature","id":"","geometry":{"type":"Point","coordinates":[-5.8274722,43.3812292]},"properties":{"marker-symbol":"bar","marker-color":"34495e","name":"Döner Kebap Istanbul","address":"C.C. LOS PRADOS, LOCAL C-3","city":"Oviedo","zipCode":"33011"}},{"type":"Feature","id":"","geometry":{"type":"Point","coordinates":[-3.7003632,40.4765501]},"properties":{"marker-symbol":"bar","marker-color":"34495e","name":"Döner Kebap Istanbul","address":"C.C. MADRID-2 LA VAGUADA, LOCAL 27","city":"Madrid","zipCode":"28029"}},{"type":"Feature","id":"","geometry":{"type":"Point","coordinates":[-6.0653538,37.34449]},"properties":{"marker-symbol":"bar","marker-color":"34495e","name":"Döner Kebap Istanbul","address":"C.C. METROMAR","city":"Mairena del Aljarafe","zipCode":"41927"}},{"type":"Feature","id":"","geometry":{"type":"Point","coordinates":[-1.1222081,37.9865]},"properties":{"marker-symbol":"bar","marker-color":"34495e","name":"Döner Kebap Istanbul","address":"C.C. NUEVA CONDOMINA","city":"Murcia","zipCode":"30110"}},{"type":"Feature","id":"","geometry":{"type":"Point","coordinates":[-5.8785861,43.5498937]},"properties":{"marker-symbol":"bar","marker-color":"34495e","name":"Döner Kebap Istanbul","address":"C.C. PARQUE ASTUR. PEDRERO, S/N","city":"Corvera de Asturias","zipCode":"33468"}},{"type":"Feature","id":"","geometry":{"type":"Point","coordinates":[-3.4797713,40.4589042]},"properties":{"marker-symbol":"bar","marker-color":"34495e","name":"Döner Kebap Istanbul","address":"C.C. PARQUE CORREDOR, LOCAL 15-16","city":"Torrejón de Ardoz","zipCode":"28850"}},{"type":"Feature","id":"","geometry":{"type":"Point","coordinates":[-1.400887,38.2501588]},"properties":{"marker-symbol":"bar","marker-color":"34495e","name":"Döner Kebap Istanbul","address":"C.C. PARQUE MEDITERRANEO. CTRA.A-30","city":"Cartagena","zipCode":"30395"}},{"type":"Feature","id":"","geometry":{"type":"Point","coordinates":[-4.6243528,36.5390044]},"properties":{"marker-symbol":"bar","marker-color":"34495e","name":"Döner Kebap Istanbul","address":"C.C. PARQUE MIRAMAR.ENCARNACION,S/N","city":"Fuengirola","zipCode":"29640"}},{"type":"Feature","id":"","geometry":{"type":"Point","coordinates":[-5.810334,43.4049326]},"properties":{"marker-symbol":"bar","marker-color":"34495e","name":"Döner Kebap Istanbul","address":"C.C. PARQUE PRINCIPADO, LOCAL 0-11","city":"Siero","zipCode":"33420"}},{"type":"Feature","id":"","geometry":{"type":"Point","coordinates":[-3.6960129,40.2445452]},"properties":{"marker-symbol":"bar","marker-color":"34495e","name":"Döner Kebap Istanbul","address":"C.C. PLAZA EBOLI, LOCAL 211","city":"Pinto","zipCode":"28320"}},{"type":"Feature","id":"","geometry":{"type":"Point","coordinates":[-0.9964085,41.6417756]},"properties":{"marker-symbol":"bar","marker-color":"34495e","name":"Döner Kebap Istanbul","address":"C.C. PLAZA IMPERIAL, LOCAL P65","city":"Zaragoza","zipCode":"50197"}},{"type":"Feature","id":"","geometry":{"type":"Point","coordinates":[-3.5863313,40.4419938]},"properties":{"marker-symbol":"bar","marker-color":"34495e","name":"Döner Kebap Istanbul","address":"C.C. PLENILUNIO, LOCAL 226","city":"Madrid","zipCode":"28022"}},{"type":"Feature","id":"","geometry":{"type":"Point","coordinates":[-3.7257386,40.4299652]},"properties":{"marker-symbol":"bar","marker-color":"34495e","name":"Döner Kebap Istanbul","address":"C.C. PRINCIPE PIO, LOCAL G-55","city":"Madrid","zipCode":"28008"}},{"type":"Feature","id":"","geometry":{"type":"Point","coordinates":[-0.5730713,38.3257169]},"properties":{"marker-symbol":"bar","marker-color":"34495e","name":"Döner Kebap Istanbul","address":"C.C. PUERTA DE ALICANTE, LOCAL A-19","city":"Alicante/Alacant","zipCode":"03007"}},{"type":"Feature","id":"","geometry":{"type":"Point","coordinates":[-3.8553507,40.3570031]},"properties":{"marker-symbol":"bar","marker-color":"34495e","name":"Döner Kebap Istanbul","address":"C.C. TRES AGUAS, LOCAL P-268A","city":"Alcorcón","zipCode":"28922"}},{"type":"Feature","id":"","geometry":{"type":"Point","coordinates":[-4.4323576,36.7091025]},"properties":{"marker-symbol":"bar","marker-color":"34495e","name":"Döner Kebap Istanbul","address":"C.C. VIALIA ESTACION","city":"Málaga","zipCode":"29002"}},{"type":"Feature","id":"","geometry":{"type":"Point","coordinates":[-3.9202906,40.2688395]},"properties":{"marker-symbol":"bar","marker-color":"34495e","name":"Döner Kebap Istanbul","address":"C.C. XANADU, LOCAL F7","city":"Arroyomolinos","zipCode":"28939"}},{"type":"Feature","id":"","geometry":{"type":"Point","coordinates":[-5.7387788,41.5124322]},"properties":{"marker-symbol":"bar","marker-color":"34495e","name":"Döner Kebap Istanbul","address":"CARDENAL CISNEROS, 56 BAJO","city":"Zamora","zipCode":"49019"}},{"type":"Feature","id":"","geometry":{"type":"Point","coordinates":[-0.9924734,37.615805]},"properties":{"marker-symbol":"bar","marker-color":"34495e","name":"Döner Kebap Istanbul","address":"FELIX MARTI ALPERA, 57","city":"Cartagena","zipCode":"30204"}},{"type":"Feature","id":"","geometry":{"type":"Point","coordinates":[-3.7047357,40.4338742]},"properties":{"marker-symbol":"bar","marker-color":"34495e","name":"Döner Kebap Istanbul","address":"GLORIETA DE QUEVEDO, 5","city":"Madrid","zipCode":"28015"}},{"type":"Feature","id":"","geometry":{"type":"Point","coordinates":[-3.7117806,40.4189645]},"properties":{"marker-symbol":"bar","marker-color":"34495e","name":"Döner Kebap Istanbul","address":"JACOMETREZO, 15 - LOCAL 5","city":"Madrid","zipCode":"28013"}},{"type":"Feature","id":"","geometry":{"type":"Point","coordinates":[-3.7016588,40.4294144]},"properties":{"marker-symbol":"bar","marker-color":"34495e","name":"Döner Kebap Istanbul","address":"LUCHANA, 3","city":"Madrid","zipCode":"28010"}},{"type":"Feature","id":"","geometry":{"type":"Point","coordinates":[-3.7003454,40.4166909]},"properties":{"marker-symbol":"bar","marker-color":"34495e","name":"Döner Kebap Istanbul","address":"Parque Casa de Campo, s/n. Parque d","city":"Madrid","zipCode":"28000"}},{"type":"Feature","id":"","geometry":{"type":"Point","coordinates":[-3.701482,40.4055005]},"properties":{"marker-symbol":"bar","marker-color":"34495e","name":"Döner Kebap Istanbul","address":"VALENCIA, 14","city":"Madrid","zipCode":"28012"}},{"type":"Feature","id":"","geometry":{"type":"Point","coordinates":[-3.7978066,40.4340302]},"properties":{"marker-symbol":"bar","marker-color":"34495e","name":"Döner Kebap Istanbul","address":"VIA DE LAS DOS CASTILLAS, 15","city":"Pozuelo de Alarcón","zipCode":"28224"}},{"type":"Feature","id":"","geometry":{"type":"Point","coordinates":[-3.3011494,40.4333839]},"properties":{"marker-symbol":"bar","marker-color":"34495e","name":"ROCK & RIBS.Enciende la llama que alumbra tu éxito","address":"C.C. Alcalá Norte","city":"Madrid","zipCode":"28027"}},{"type":"Feature","id":"","geometry":{"type":"Point","coordinates":[-6.1301677,36.6796071]},"properties":{"marker-symbol":"bar","marker-color":"34495e","name":"ROCK & RIBS.Enciende la llama que alumbra tu éxito","address":"C.C. AREA SUR, LOCAL T13","city":"Jerez de la Frontera","zipCode":"11401"}},{"type":"Feature","id":"","geometry":{"type":"Point","coordinates":[-3.4731298,40.4571648]},"properties":{"marker-symbol":"bar","marker-color":"34495e","name":"ROCK & RIBS.Enciende la llama que alumbra tu éxito","address":"C.C. EL CIRCULO.AV.CONSTITUCION, 90","city":"Torrejón de Ardoz","zipCode":"28850"}},{"type":"Feature","id":"","geometry":{"type":"Point","coordinates":[2.752193,39.6421275]},"properties":{"marker-symbol":"bar","marker-color":"34495e","name":"ROCK & RIBS.Enciende la llama que alumbra tu éxito","address":"C.C. FESTIVAL PARK, LOCAL 105","city":"Marratxí","zipCode":"07141"}},{"type":"Feature","id":"","geometry":{"type":"Point","coordinates":[2.196618,41.4378689]},"properties":{"marker-symbol":"bar","marker-color":"34495e","name":"ROCK & RIBS.Enciende la llama que alumbra tu éxito","address":"C.C. LA MAQUINISTA, LOCAL C44-A","city":"Barcelona","zipCode":"08030"}},{"type":"Feature","id":"","geometry":{"type":"Point","coordinates":[-1.1257082,38.0471977]},"properties":{"marker-symbol":"bar","marker-color":"34495e","name":"ROCK & RIBS.Enciende la llama que alumbra tu éxito","address":"C.C. NUEVA CONDOMINA, LOCAL E5-E6","city":"Murcia","zipCode":"30110"}},{"type":"Feature","id":"","geometry":{"type":"Point","coordinates":[-3.7995034,40.3484298]},"properties":{"marker-symbol":"bar","marker-color":"34495e","name":"ROCK & RIBS.Enciende la llama que alumbra tu éxito","address":"C.C. TRES AGUAS","city":"Alcorcón","zipCode":"28922"}},{"type":"Feature","id":"","geometry":{"type":"Point","coordinates":[-0.9018542,41.6389015]},"properties":{"marker-symbol":"bar","marker-color":"34495e","name":"ROCK & RIBS.Enciende la llama que alumbra tu éxito","address":"EDUARDO IBARRA, 2","city":"Zaragoza","zipCode":"50009"}},{"type":"Feature","id":"","geometry":{"type":"Point","coordinates":[-3.6877978,40.4327411]},"properties":{"marker-symbol":"bar","marker-color":"34495e","name":"ROCK & RIBS.Enciende la llama que alumbra tu éxito","address":"Pso. DE LA CASTELLANA, 36","city":"Madrid","zipCode":"28046"}},{"type":"Feature","id":"","geometry":{"type":"Point","coordinates":[-4.0593255,39.9001293]},"properties":{"marker-symbol":"bar","marker-color":"34495e","name":"ROCK & RIBS.Enciende la llama que alumbra tu éxito","address":"RONDA BUENA VISTA, 31","city":"Toledo","zipCode":"45005"}},{"type":"Feature","id":"","geometry":{"type":"Point","coordinates":[-3.3841045,38.7605285]},"properties":{"marker-symbol":"bar","marker-color":"34495e","name":"El Antojito Mexican Grill","address":"Avda. 1º JULIO, 32","city":"Valdepeñas","zipCode":"13300"}},{"type":"Feature","id":"","geometry":{"type":"Point","coordinates":[-3.2181477,39.3177867]},"properties":{"marker-symbol":"bar","marker-color":"34495e","name":"El Antojito Mexican Grill","address":"Avda. INSTITUTOS, Nº1","city":"Alcázar de San Juan","zipCode":"13600"}},{"type":"Feature","id":"","geometry":{"type":"Point","coordinates":[-3.8349976,36.7956944]},"properties":{"marker-symbol":"bar","marker-color":"34495e","name":"El Antojito Mexican Grill","address":"Avda. MEDITERRANEO,S/N.,TOBOSO,L-9","city":"Nerja","zipCode":"29780"}},{"type":"Feature","id":"","geometry":{"type":"Point","coordinates":[-4.7283877,41.6529473]},"properties":{"marker-symbol":"bar","marker-color":"34495e","name":"El Antojito Mexican Grill","address":"C.C. EQUINOCCIO,LOCAL L-3,1ªPLANTA","city":"Zaratán","zipCode":"47640"}},{"type":"Feature","id":"","geometry":{"type":"Point","coordinates":[-0.4078058,39.4909035]},"properties":{"marker-symbol":"bar","marker-color":"34495e","name":"El Antojito Mexican Grill","address":"C.C. ESPAI CAMPANAR,LOCAL PA-89","city":"Valencia","zipCode":"46015"}},{"type":"Feature","id":"","geometry":{"type":"Point","coordinates":[-0.4405986,39.5020648]},"properties":{"marker-symbol":"bar","marker-color":"34495e","name":"El Antojito Mexican Grill","address":"C.C. HERON CITY PATERNA,LOCAL 2-3","city":"Paterna","zipCode":"46980"}},{"type":"Feature","id":"","geometry":{"type":"Point","coordinates":[-0.3898719,39.4232324]},"properties":{"marker-symbol":"bar","marker-color":"34495e","name":"El Antojito Mexican Grill","address":"C.C. MN4 ALFAFAR,A.JOSE PUENTES,S/N","city":"Alfafar","zipCode":"46910"}},{"type":"Feature","id":"","geometry":{"type":"Point","coordinates":[-0.9447829,38.0839494]},"properties":{"marker-symbol":"bar","marker-color":"34495e","name":"El Antojito Mexican Grill","address":"C.C. OCIOPIA, LOCAL A-18","city":"Orihuela","zipCode":"03300"}},{"type":"Feature","id":"","geometry":{"type":"Point","coordinates":[-0.0093266,39.970967]},"properties":{"marker-symbol":"bar","marker-color":"34495e","name":"El Antojito Mexican Grill","address":"C.CO.PUERTO AZAHAR,LOCAL 15","city":"Castellón de la Plana/Castelló de l","zipCode":"12100"}},{"type":"Feature","id":"","geometry":{"type":"Point","coordinates":[-6.0891032,36.3896325]},"properties":{"marker-symbol":"bar","marker-color":"34495e","name":"El Antojito Mexican Grill","address":"C.E.LAS REDES,DESCUBRIMIENTO,L-13B","city":"Chiclana de la Frontera","zipCode":"11130"}},{"type":"Feature","id":"","geometry":{"type":"Point","coordinates":[-0.0291533,39.9876472]},"properties":{"marker-symbol":"bar","marker-color":"34495e","name":"El Antojito Mexican Grill","address":"MAESTRO RIPOLLES,10,BAJO DRCHA","city":"Castellón de la Plana/Castelló de l","zipCode":"12003"}},{"type":"Feature","id":"","geometry":{"type":"Point","coordinates":[-3.6943618000000242,40.4550119]},"properties":{"marker-symbol":"bar","marker-color":"34495e","name":"Tommy Mel's Classic Diner","address":"Pedro Teixeira, 8","city":"Madrid","zipCode":"28020"}},{"type":"Feature","id":"","geometry":{"type":"Point","coordinates":[-4.4200186,36.7196459]},"properties":{"marker-symbol":"bar","marker-color":"34495e","name":"Wok Asia","address":"PARQUE DE OCIO MALAGA NOSTRUM","city":"Málaga","zipCode":"29000"}},{"type":"Feature","id":"","geometry":{"type":"Point","coordinates":[-4.3820785,36.721962]},"properties":{"marker-symbol":"bar","marker-color":"34495e","name":"Wok Asia","address":"Pintor Joaquín Sorolla, 151","city":"Málaga","zipCode":"29000"}},{"type":"Feature","id":"","geometry":{"type":"Point","coordinates":[-3.7132044,40.4304648]},"properties":{"marker-symbol":"bar","marker-color":"34495e","name":"Ginos","address":"ALBERTO AGUILERA, 56","city":"Madrid","zipCode":"28015"}},{"type":"Feature","id":"","geometry":{"type":"Point","coordinates":[-3.6640658,40.4303282]},"properties":{"marker-symbol":"bar","marker-color":"34495e","name":"Ginos","address":"ALCALA, 200","city":"Madrid","zipCode":"28028"}},{"type":"Feature","id":"","geometry":{"type":"Point","coordinates":[-3.6992534,40.4180539]},"properties":{"marker-symbol":"bar","marker-color":"34495e","name":"Ginos","address":"ALCALA, 23","city":"Madrid","zipCode":"28014"}},{"type":"Feature","id":"","geometry":{"type":"Point","coordinates":[-3.6295552,40.4401376]},"properties":{"marker-symbol":"bar","marker-color":"34495e","name":"Ginos","address":"ALCALA, 492","city":"Madrid","zipCode":"28037"}},{"type":"Feature","id":"","geometry":{"type":"Point","coordinates":[-0.380762,39.4169989]},"properties":{"marker-symbol":"bar","marker-color":"34495e","name":"Ginos","address":"ALCALDE JOSE PUERTES, S/N","city":"Alfafar","zipCode":"46910"}},{"type":"Feature","id":"","geometry":{"type":"Point","coordinates":[-3.7117832,40.4493131]},"properties":{"marker-symbol":"bar","marker-color":"34495e","name":"Ginos","address":"ALMANSA, 87","city":"Madrid","zipCode":"28040"}},{"type":"Feature","id":"","geometry":{"type":"Point","coordinates":[-3.7072954,40.4174273]},"properties":{"marker-symbol":"bar","marker-color":"34495e","name":"Ginos","address":"ARENAL, 15","city":"Madrid","zipCode":"28013"}},{"type":"Feature","id":"","geometry":{"type":"Point","coordinates":[-3.6583533,40.4576302]},"properties":{"marker-symbol":"bar","marker-color":"34495e","name":"Ginos","address":"ARTURO SORIA, 177","city":"Madrid","zipCode":"28043"}},{"type":"Feature","id":"","geometry":{"type":"Point","coordinates":[-6.0653538,37.34449]},"properties":{"marker-symbol":"bar","marker-color":"34495e","name":"Ginos","address":"Avda. CUBA,LOCAL 1 Y 2","city":"Mairena del Aljarafe","zipCode":"41927"}},{"type":"Feature","id":"","geometry":{"type":"Point","coordinates":[-3.7156953,40.6045544]},"properties":{"marker-symbol":"bar","marker-color":"34495e","name":"Ginos","address":"Avda. DE LOS ENCUARTES, 21","city":"Tres Cantos","zipCode":"28760"}},{"type":"Feature","id":"","geometry":{"type":"Point","coordinates":[-3.719826,40.4760671]},"properties":{"marker-symbol":"bar","marker-color":"34495e","name":"Ginos","address":"Avda. MONFORTE DE LEMOS, 193","city":"Madrid","zipCode":"28035"}},{"type":"Feature","id":"","geometry":{"type":"Point","coordinates":[-6.0014929,37.3780523]},"properties":{"marker-symbol":"bar","marker-color":"34495e","name":"Ginos","address":"Avda. REPUBLICA ARGENTINA, 23-25","city":"Sevilla","zipCode":"41011"}},{"type":"Feature","id":"","geometry":{"type":"Point","coordinates":[2.024876,41.54486]},"properties":{"marker-symbol":"bar","marker-color":"34495e","name":"Ginos","address":"Avda. TEXTIL, S/N.","city":"Terrassa","zipCode":"08223"}},{"type":"Feature","id":"","geometry":{"type":"Point","coordinates":[-3.7041331,40.4461948]},"properties":{"marker-symbol":"bar","marker-color":"34495e","name":"Ginos","address":"BRAVO MURILLO, 95","city":"Madrid","zipCode":"28003"}},{"type":"Feature","id":"","geometry":{"type":"Point","coordinates":[-3.6868955,40.4004651]},"properties":{"marker-symbol":"bar","marker-color":"34495e","name":"Ginos","address":"BUSTAMANTE, 26","city":"Madrid","zipCode":"28045"}},{"type":"Feature","id":"","geometry":{"type":"Point","coordinates":[-3.6471162,40.4604421]},"properties":{"marker-symbol":"bar","marker-color":"34495e","name":"Ginos","address":"C.C. ARTURO SORIA PLAZA. LOCAL 21","city":"Madrid","zipCode":"28043"}},{"type":"Feature","id":"","geometry":{"type":"Point","coordinates":[-0.4613582,39.4650522]},"properties":{"marker-symbol":"bar","marker-color":"34495e","name":"Ginos","address":"C.C. BONAIRE, LOCAL F-600","city":"Aldaia","zipCode":"46960"}},{"type":"Feature","id":"","geometry":{"type":"Point","coordinates":[2.1602596,41.3965575]},"properties":{"marker-symbol":"bar","marker-color":"34495e","name":"Ginos","address":"C.C. DIAGONAL MAR. AVDA.DIAGONAL, 3","city":"Barcelona","zipCode":"08019"}},{"type":"Feature","id":"","geometry":{"type":"Point","coordinates":[-3.6673942,40.5614212]},"properties":{"marker-symbol":"bar","marker-color":"34495e","name":"Ginos","address":"C.C. DIVERSIA, BRUSELAS, 21","city":"Alcobendas","zipCode":"28100"}},{"type":"Feature","id":"","geometry":{"type":"Point","coordinates":[-2.6687188,42.8609837]},"properties":{"marker-symbol":"bar","marker-color":"34495e","name":"Ginos","address":"C.C. EL BOULEVARD, ZARAMAGA, 1","city":"Vitoria-Gasteiz","zipCode":"01013"}},{"type":"Feature","id":"","geometry":{"type":"Point","coordinates":[-15.4126652,28.1696925]},"properties":{"marker-symbol":"bar","marker-color":"34495e","name":"Ginos","address":"C.C. EL MUELLE,LOCAL 312 - 315","city":"Palmas de Gran Canaria (Las)","zipCode":"35008"}},{"type":"Feature","id":"","geometry":{"type":"Point","coordinates":[-8.3923829,43.3547135]},"properties":{"marker-symbol":"bar","marker-color":"34495e","name":"Ginos","address":"C.C. EL PUERTO,ALFEREZ PROVISIONAL,","city":"Coruña (A)","zipCode":"15006"}},{"type":"Feature","id":"","geometry":{"type":"Point","coordinates":[-0.3607137,39.4496491]},"properties":{"marker-symbol":"bar","marker-color":"34495e","name":"Ginos","address":"C.C. EL SALER. AUTOVIA EL SALER, 16","city":"Valencia","zipCode":"46013"}},{"type":"Feature","id":"","geometry":{"type":"Point","coordinates":[-5.6294268,40.9494557]},"properties":{"marker-symbol":"bar","marker-color":"34495e","name":"Ginos","address":"C.C. EL TORMES.AVDA.SALAMANCA S/N","city":"Santa Marta de Tormes","zipCode":"37900"}},{"type":"Feature","id":"","geometry":{"type":"Point","coordinates":[-3.8808034,40.4731888]},"properties":{"marker-symbol":"bar","marker-color":"34495e","name":"Ginos","address":"C.C. EQUINOCIO, DE LA FRESA, 2","city":"Majadahonda","zipCode":"28220"}},{"type":"Feature","id":"","geometry":{"type":"Point","coordinates":[-4.7840706,41.6610009]},"properties":{"marker-symbol":"bar","marker-color":"34495e","name":"Ginos","address":"C.C. EQUINOCIO. CTRA. N-601, KM.3","city":"Zaratán","zipCode":"47610"}},{"type":"Feature","id":"","geometry":{"type":"Point","coordinates":[-5.8696793,43.3502162]},"properties":{"marker-symbol":"bar","marker-color":"34495e","name":"Ginos","address":"C.C. ESPACIO BUENAVISTA","city":"Oviedo","zipCode":"33006"}},{"type":"Feature","id":"","geometry":{"type":"Point","coordinates":[2.7413886,39.6380894]},"properties":{"marker-symbol":"bar","marker-color":"34495e","name":"Ginos","address":"C.C. FESTIVAL PARK,AUT.PALMA-INCA","city":"Marratxí","zipCode":"07141"}},{"type":"Feature","id":"","geometry":{"type":"Point","coordinates":[-0.4277937,39.466685]},"properties":{"marker-symbol":"bar","marker-color":"34495e","name":"Ginos","address":"C.C. GRAN TURIA. PZA. EUROPA, S/N","city":"Xirivella","zipCode":"46950"}},{"type":"Feature","id":"","geometry":{"type":"Point","coordinates":[-0.4643906,38.4788189]},"properties":{"marker-symbol":"bar","marker-color":"34495e","name":"Ginos","address":"C.C. GRAN VIA, JOSE Gª SELLES, 2","city":"Alicante/Alacant","zipCode":"03015"}},{"type":"Feature","id":"","geometry":{"type":"Point","coordinates":[-3.5053993,40.3426361]},"properties":{"marker-symbol":"bar","marker-color":"34495e","name":"Ginos","address":"C.C. H2 OCIO","city":"Rivas-Vaciamadrid","zipCode":"28521"}},{"type":"Feature","id":"","geometry":{"type":"Point","coordinates":[-3.7003454,40.4166909]},"properties":{"marker-symbol":"bar","marker-color":"34495e","name":"Ginos","address":"C.C. HERON CITY LAS ROZAS","city":"Rozas de Madrid (Las)","zipCode":"28230"}},{"type":"Feature","id":"","geometry":{"type":"Point","coordinates":[-3.8130616,40.4351952]},"properties":{"marker-symbol":"bar","marker-color":"34495e","name":"Ginos","address":"C.C. KINEPOLIS,EDGAR NEVILLE,S/N","city":"Pozuelo de Alarcón","zipCode":"28223"}},{"type":"Feature","id":"","geometry":{"type":"Point","coordinates":[-3.357454,40.4958997]},"properties":{"marker-symbol":"bar","marker-color":"34495e","name":"Ginos","address":"C.C. LA GARENA PLAZA","city":"Alcalá de Henares","zipCode":"28806"}},{"type":"Feature","id":"","geometry":{"type":"Point","coordinates":[-3.6116494,40.3444717]},"properties":{"marker-symbol":"bar","marker-color":"34495e","name":"Ginos","address":"C.C. LA GAVIA ALTO DEL RETIRO, 33","city":"Madrid","zipCode":"28051"}},{"type":"Feature","id":"","geometry":{"type":"Point","coordinates":[2.196618,41.4378689]},"properties":{"marker-symbol":"bar","marker-color":"34495e","name":"Ginos","address":"C.C. LA MAQUINISTA, LOCAL A-21","city":"Barcelona","zipCode":"08030"}},{"type":"Feature","id":"","geometry":{"type":"Point","coordinates":[-0.7437761,38.2825985]},"properties":{"marker-symbol":"bar","marker-color":"34495e","name":"Ginos","address":"C.C. L'ALJUB, JARANDILLA, S/N","city":"Elche/Elx","zipCode":"03205"}},{"type":"Feature","id":"","geometry":{"type":"Point","coordinates":[2.2015347,41.4227641]},"properties":{"marker-symbol":"bar","marker-color":"34495e","name":"Ginos","address":"C.C. LES GLORIES,DIAGONAL, 208","city":"Barcelona","zipCode":"08020"}},{"type":"Feature","id":"","geometry":{"type":"Point","coordinates":[-5.999675,37.3768986]},"properties":{"marker-symbol":"bar","marker-color":"34495e","name":"Ginos","address":"C.C. LOS ARCOS. AVDA. ANDALUCIA, S/","city":"Sevilla","zipCode":"41014"}},{"type":"Feature","id":"","geometry":{"type":"Point","coordinates":[-4.0432334,40.6481344]},"properties":{"marker-symbol":"bar","marker-color":"34495e","name":"Ginos","address":"C.C. Los Valles","city":"Collado Villalba","zipCode":"28400"}},{"type":"Feature","id":"","geometry":{"type":"Point","coordinates":[-3.8538222,40.2957898]},"properties":{"marker-symbol":"bar","marker-color":"34495e","name":"Ginos","address":"C.C. MADRID XANADU,CTRA.A-5,KM.23,5","city":"Arroyomolinos","zipCode":"28939"}},{"type":"Feature","id":"","geometry":{"type":"Point","coordinates":[2.1573033,41.3334469]},"properties":{"marker-symbol":"bar","marker-color":"34495e","name":"Ginos","address":"C.C. MAREMAGNUM, LOCAL 7","city":"Barcelona","zipCode":"08039"}},{"type":"Feature","id":"","geometry":{"type":"Point","coordinates":[-3.5800038,40.5831895]},"properties":{"marker-symbol":"bar","marker-color":"34495e","name":"Ginos","address":"C.C. MEGAPARK, COMERCIO, S/N","city":"San Sebastián de los Reyes","zipCode":"28709"}},{"type":"Feature","id":"","geometry":{"type":"Point","coordinates":[-16.2595694,28.4578221]},"properties":{"marker-symbol":"bar","marker-color":"34495e","name":"Ginos","address":"C.C. MERIDIANO, 16.","city":"Santa Cruz de Tenerife","zipCode":"38005"}},{"type":"Feature","id":"","geometry":{"type":"Point","coordinates":[2.1806423,41.4018879]},"properties":{"marker-symbol":"bar","marker-color":"34495e","name":"Ginos","address":"C.C. MODA SHOPPING. MARINA 16-18","city":"Barcelona","zipCode":"08013"}},{"type":"Feature","id":"","geometry":{"type":"Point","coordinates":[-3.6613495,40.5195335]},"properties":{"marker-symbol":"bar","marker-color":"34495e","name":"Ginos","address":"C.C. MORALEJA GREEN, AVDA. EUROPA,1","city":"Alcobendas","zipCode":"28100"}},{"type":"Feature","id":"","geometry":{"type":"Point","coordinates":[-3.6724649,40.3017837]},"properties":{"marker-symbol":"bar","marker-color":"34495e","name":"Ginos","address":"C.C. NASSICA,CTRA.ANDALUCIA, SAL.17","city":"Getafe","zipCode":"28906"}},{"type":"Feature","id":"","geometry":{"type":"Point","coordinates":[-5.9806139,37.3838341]},"properties":{"marker-symbol":"bar","marker-color":"34495e","name":"Ginos","address":"C.C. NERVION PLAZA,LUIS MORALES,S/N","city":"Sevilla","zipCode":"41018"}},{"type":"Feature","id":"","geometry":{"type":"Point","coordinates":[-0.4915012,38.3360725]},"properties":{"marker-symbol":"bar","marker-color":"34495e","name":"Ginos","address":"C.C. PANORAMIS. MUELLE DE PONIENTE","city":"Alicante/Alacant","zipCode":"03001"}},{"type":"Feature","id":"","geometry":{"type":"Point","coordinates":[-3.8322457,40.3422785]},"properties":{"marker-symbol":"bar","marker-color":"34495e","name":"Ginos","address":"C.C. PARQUE OESTE, AVDA. EUROPA, 5","city":"Alcorcón","zipCode":"28922"}},{"type":"Feature","id":"","geometry":{"type":"Point","coordinates":[-5.80223,43.3907142]},"properties":{"marker-symbol":"bar","marker-color":"34495e","name":"Ginos","address":"C.C. PARQUE PRINCIPADO","city":"Siero","zipCode":"33429"}},{"type":"Feature","id":"","geometry":{"type":"Point","coordinates":[-3.7327191,40.3400009]},"properties":{"marker-symbol":"bar","marker-color":"34495e","name":"Ginos","address":"C.C. PARQUESUR, GRAN BRETAÑA,S/N","city":"Leganés","zipCode":"28916"}},{"type":"Feature","id":"","geometry":{"type":"Point","coordinates":[-0.4643906,38.373599]},"properties":{"marker-symbol":"bar","marker-color":"34495e","name":"Ginos","address":"C.C. Plaza del Mar - Local R-07 - A","city":"Alicante/Alacant","zipCode":"03016"}},{"type":"Feature","id":"","geometry":{"type":"Point","coordinates":[-3.5895431,40.4447867]},"properties":{"marker-symbol":"bar","marker-color":"34495e","name":"Ginos","address":"C.C. Plenilunio. C/ Aracne, 3","city":"Madrid","zipCode":"28022"}},{"type":"Feature","id":"","geometry":{"type":"Point","coordinates":[-0.7143598,39.174879]},"properties":{"marker-symbol":"bar","marker-color":"34495e","name":"Ginos","address":"C.C. RIBERA DEL XUQUER","city":"Carcaixent","zipCode":"46740"}},{"type":"Feature","id":"","geometry":{"type":"Point","coordinates":[-3.8808034,40.4731888]},"properties":{"marker-symbol":"bar","marker-color":"34495e","name":"Ginos","address":"C.C. SEXTA AVENIDA, LOCAL C-29","city":"EL PLANTIO (MAJADAHONDA)","zipCode":"28220"}},{"type":"Feature","id":"","geometry":{"type":"Point","coordinates":[-3.7003632,40.4765501]},"properties":{"marker-symbol":"bar","marker-color":"34495e","name":"Ginos","address":"C.C. VAGUADA,MONFORTE DE LEMOS, 36","city":"Madrid","zipCode":"28029"}},{"type":"Feature","id":"","geometry":{"type":"Point","coordinates":[-4.8209596,41.5502477]},"properties":{"marker-symbol":"bar","marker-color":"34495e","name":"Ginos","address":"C.C. VALLSUR, LOCAL 1, PLANTA 1","city":"Valladolid","zipCode":"47008"}},{"type":"Feature","id":"","geometry":{"type":"Point","coordinates":[-4.4348459,36.7061918]},"properties":{"marker-symbol":"bar","marker-color":"34495e","name":"Ginos","address":"C.C. VIALIA","city":"Málaga","zipCode":"29002"}},{"type":"Feature","id":"","geometry":{"type":"Point","coordinates":[-5.6495529,40.972207]},"properties":{"marker-symbol":"bar","marker-color":"34495e","name":"Ginos","address":"C.C. VIALIA-L.C15. PZA. ESTACION,S/","city":"Salamanca","zipCode":"37004"}},{"type":"Feature","id":"","geometry":{"type":"Point","coordinates":[-5.937661,37.4036133]},"properties":{"marker-symbol":"bar","marker-color":"34495e","name":"Ginos","address":"C.C. ZONA ESTE. AVDA. LUIS URUÑUELA","city":"Sevilla","zipCode":"41020"}},{"type":"Feature","id":"","geometry":{"type":"Point","coordinates":[-3.893063,40.5225557]},"properties":{"marker-symbol":"bar","marker-color":"34495e","name":"Ginos","address":"CAMILO JOSE CELA, 24","city":"Rozas de Madrid (Las)","zipCode":"28230"}},{"type":"Feature","id":"","geometry":{"type":"Point","coordinates":[-3.6699457,40.4143858]},"properties":{"marker-symbol":"bar","marker-color":"34495e","name":"Ginos","address":"DR.ESQUERDO, 66","city":"Madrid","zipCode":"28007"}},{"type":"Feature","id":"","geometry":{"type":"Point","coordinates":[-3.6754559,40.4352506]},"properties":{"marker-symbol":"bar","marker-color":"34495e","name":"Ginos","address":"FRANCISCO SILVELA, 67","city":"Madrid","zipCode":"28028"}},{"type":"Feature","id":"","geometry":{"type":"Point","coordinates":[-2.9319541,43.2600098]},"properties":{"marker-symbol":"bar","marker-color":"34495e","name":"Ginos","address":"General Concha, 2","city":"Bilbao","zipCode":"48008"}},{"type":"Feature","id":"","geometry":{"type":"Point","coordinates":[-0.3691141,39.4671758]},"properties":{"marker-symbol":"bar","marker-color":"34495e","name":"Ginos","address":"GRAN VIA MARQUES DEL TURIA, 49","city":"Valencia","zipCode":"46005"}},{"type":"Feature","id":"","geometry":{"type":"Point","coordinates":[-3.706839,40.4206362]},"properties":{"marker-symbol":"bar","marker-color":"34495e","name":"Ginos","address":"GRAN VIA, 43","city":"Madrid","zipCode":"28013"}},{"type":"Feature","id":"","geometry":{"type":"Point","coordinates":[-3.7219693,40.4904243]},"properties":{"marker-symbol":"bar","marker-color":"34495e","name":"Ginos","address":"GTA. DE LAS VAQUERIZAS","city":"Madrid","zipCode":"28035"}},{"type":"Feature","id":"","geometry":{"type":"Point","coordinates":[-3.7039965,40.433876]},"properties":{"marker-symbol":"bar","marker-color":"34495e","name":"Ginos","address":"GTA. QUEVEDO, 8","city":"Madrid","zipCode":"28015"}},{"type":"Feature","id":"","geometry":{"type":"Point","coordinates":[-3.6854032,40.4264133]},"properties":{"marker-symbol":"bar","marker-color":"34495e","name":"Ginos","address":"HERMOSILLA, 23","city":"Madrid","zipCode":"28001"}},{"type":"Feature","id":"","geometry":{"type":"Point","coordinates":[-3.6806901,40.4327897]},"properties":{"marker-symbol":"bar","marker-color":"34495e","name":"Ginos","address":"JUAN BRAVO, 23","city":"Madrid","zipCode":"28006"}},{"type":"Feature","id":"","geometry":{"type":"Point","coordinates":[-3.6471162,40.4604421]},"properties":{"marker-symbol":"bar","marker-color":"34495e","name":"Ginos","address":"MAR CARIBE, 1 ESQ. ANDES","city":"Madrid","zipCode":"28043"}},{"type":"Feature","id":"","geometry":{"type":"Point","coordinates":[-3.6811735,40.3965921]},"properties":{"marker-symbol":"bar","marker-color":"34495e","name":"Ginos","address":"MENDEZ ALVARO, 72","city":"Madrid","zipCode":"28045"}},{"type":"Feature","id":"","geometry":{"type":"Point","coordinates":[-3.6787398,40.4217169]},"properties":{"marker-symbol":"bar","marker-color":"34495e","name":"Ginos","address":"O'DONNELL, 17","city":"Madrid","zipCode":"28009"}},{"type":"Feature","id":"","geometry":{"type":"Point","coordinates":[2.1441875,41.3924601]},"properties":{"marker-symbol":"bar","marker-color":"34495e","name":"Ginos","address":"Plaza FRANCES MACIA, 7","city":"Barcelona","zipCode":"08029"}},{"type":"Feature","id":"","geometry":{"type":"Point","coordinates":[-3.7126157,40.425305]},"properties":{"marker-symbol":"bar","marker-color":"34495e","name":"Ginos","address":"PRINCESA, 5","city":"Madrid","zipCode":"28008"}},{"type":"Feature","id":"","geometry":{"type":"Point","coordinates":[-3.6766277,40.4579438]},"properties":{"marker-symbol":"bar","marker-color":"34495e","name":"Ginos","address":"PRINCIPE DE VERGARA, 268","city":"Madrid","zipCode":"28016"}},{"type":"Feature","id":"","geometry":{"type":"Point","coordinates":[-3.6910883,40.4478469]},"properties":{"marker-symbol":"bar","marker-color":"34495e","name":"Ginos","address":"Pso. DE LA CASTELLANA, 83","city":"Madrid","zipCode":"28046"}},{"type":"Feature","id":"","geometry":{"type":"Point","coordinates":[-0.8842252,41.6485938]},"properties":{"marker-symbol":"bar","marker-color":"34495e","name":"Ginos","address":"PZA. DE ARAGON, 2","city":"Zaragoza","zipCode":"50004"}},{"type":"Feature","id":"","geometry":{"type":"Point","coordinates":[-0.3760485,39.4675296]},"properties":{"marker-symbol":"bar","marker-color":"34495e","name":"Ginos","address":"RIBERA, 19","city":"Valencia","zipCode":"46002"}},{"type":"Feature","id":"","geometry":{"type":"Point","coordinates":[-3.6367657,40.4628303]},"properties":{"marker-symbol":"bar","marker-color":"34495e","name":"Ginos","address":"SILVANO,77","city":"Madrid","zipCode":"28043"}},{"type":"Feature","id":"","geometry":{"type":"Point","coordinates":[-3.6829078,40.4392589]},"properties":{"marker-symbol":"bar","marker-color":"34495e","name":"Ginos","address":"VELAZQUEZ, 136","city":"Madrid","zipCode":"28006"}},{"type":"Feature","id":"","geometry":{"type":"Point","coordinates":[2.1728332,41.3884276]},"properties":{"marker-symbol":"bar","marker-color":"34495e","name":"Ginos","address":"VIA LAIETANA, 71","city":"Barcelona","zipCode":"08003"}},{"type":"Feature","id":"","geometry":{"type":"Point","coordinates":[-3.684594,40.4636488]},"properties":{"marker-symbol":"bar","marker-color":"34495e","name":"Il Tempietto","address":"Apolonio Morales, 1","city":"Madrid","zipCode":"28036"}},{"type":"Feature","id":"","geometry":{"type":"Point","coordinates":[2.1601446,41.3886026]},"properties":{"marker-symbol":"bar","marker-color":"34495e","name":"Il Tempietto","address":"Aragó, 224","city":"Barcelona","zipCode":"08011"}},{"type":"Feature","id":"","geometry":{"type":"Point","coordinates":[-3.6924253,40.4673606]},"properties":{"marker-symbol":"bar","marker-color":"34495e","name":"Il Tempietto","address":"Avda. ASTURIAS, 7","city":"Madrid","zipCode":"28029"}},{"type":"Feature","id":"","geometry":{"type":"Point","coordinates":[-3.896536,40.4043181]},"properties":{"marker-symbol":"bar","marker-color":"34495e","name":"Il Tempietto","address":"Avda. INFANTE DON LUIS, 13","city":"Boadilla del Monte","zipCode":"28660"}},{"type":"Feature","id":"","geometry":{"type":"Point","coordinates":[-0.3489496,39.4574512]},"properties":{"marker-symbol":"bar","marker-color":"34495e","name":"Il Tempietto","address":"C.C. Aqua Multiespacio, local 215","city":"Valencia","zipCode":"46023"}},{"type":"Feature","id":"","geometry":{"type":"Point","coordinates":[-6.1371725,36.6865618]},"properties":{"marker-symbol":"bar","marker-color":"34495e","name":"Il Tempietto","address":"C.C. AREA SUR, LOCAL T-1","city":"Jerez de la Frontera","zipCode":"11400"}},{"type":"Feature","id":"","geometry":{"type":"Point","coordinates":[-3.0202518,43.3206637]},"properties":{"marker-symbol":"bar","marker-color":"34495e","name":"Il Tempietto","address":"C.C. BALLONTI, LOCAL A19 PTA. ALTA","city":"Portugalete","zipCode":"48920"}},{"type":"Feature","id":"","geometry":{"type":"Point","coordinates":[-3.7079745,40.600727]},"properties":{"marker-symbol":"bar","marker-color":"34495e","name":"Il Tempietto","address":"C.C. CIUDAD 3 CANTOS.LABRADORES 9-1","city":"Tres Cantos","zipCode":"28760"}},{"type":"Feature","id":"","geometry":{"type":"Point","coordinates":[-0.5210565,39.5628525]},"properties":{"marker-symbol":"bar","marker-color":"34495e","name":"Il Tempietto","address":"C.C. EL OSITO. TUEJAR, S/N","city":"Eliana (l')","zipCode":"46183"}},{"type":"Feature","id":"","geometry":{"type":"Point","coordinates":[-0.9462345,37.6268999]},"properties":{"marker-symbol":"bar","marker-color":"34495e","name":"Il Tempietto","address":"C.C. ESPACIO MEDITERRANEO, L. 2.02","city":"Cartagena","zipCode":"30395"}},{"type":"Feature","id":"","geometry":{"type":"Point","coordinates":[2.7829605,41.9703059]},"properties":{"marker-symbol":"bar","marker-color":"34495e","name":"Il Tempietto","address":"C.C. ESPAI GIRONES. CNO. CARLIN, 10","city":"Salt","zipCode":"17190"}},{"type":"Feature","id":"","geometry":{"type":"Point","coordinates":[-3.1592219,40.6258688]},"properties":{"marker-symbol":"bar","marker-color":"34495e","name":"Il Tempietto","address":"C.C. FERIAL PLAZA","city":"Guadalajara","zipCode":"19002"}},{"type":"Feature","id":"","geometry":{"type":"Point","coordinates":[-0.481006,38.3452032]},"properties":{"marker-symbol":"bar","marker-color":"34495e","name":"Il Tempietto","address":"C.C. HABANERAS, LOCAL C-10","city":"Torrevieja","zipCode":"03180"}},{"type":"Feature","id":"","geometry":{"type":"Point","coordinates":[-3.7612856,40.3626396]},"properties":{"marker-symbol":"bar","marker-color":"34495e","name":"Il Tempietto","address":"C.C. Islazul, local 140. Calderilla","city":"Madrid","zipCode":"28054"}},{"type":"Feature","id":"","geometry":{"type":"Point","coordinates":[-3.6081631,37.2226455]},"properties":{"marker-symbol":"bar","marker-color":"34495e","name":"Il Tempietto","address":"C.C. KINEPOLIS. B.BILLY WILDER, S/N","city":"Pulianas","zipCode":"18197"}},{"type":"Feature","id":"","geometry":{"type":"Point","coordinates":[-0.1752525,38.9745017]},"properties":{"marker-symbol":"bar","marker-color":"34495e","name":"Il Tempietto","address":"C.C. LA VITAL, LOCAL A-23D","city":"Gandia","zipCode":"46701"}},{"type":"Feature","id":"","geometry":{"type":"Point","coordinates":[-3.3323774,40.6321297]},"properties":{"marker-symbol":"bar","marker-color":"34495e","name":"Il Tempietto","address":"C.C. Las Rosas. Avda. Guadalajara,","city":"Madrid","zipCode":"28032"}},{"type":"Feature","id":"","geometry":{"type":"Point","coordinates":[-6.973198,38.8438219]},"properties":{"marker-symbol":"bar","marker-color":"34495e","name":"Il Tempietto","address":"C.C. LAS VAGUADAS","city":"Badajoz","zipCode":"06010"}},{"type":"Feature","id":"","geometry":{"type":"Point","coordinates":[-3.3338547,40.5105476]},"properties":{"marker-symbol":"bar","marker-color":"34495e","name":"Il Tempietto","address":"C.C. Los Cuadernillos. Ctra. A-2, k","city":"Alcalá de Henares","zipCode":"28805"}},{"type":"Feature","id":"","geometry":{"type":"Point","coordinates":[-3.9164585,39.8639609]},"properties":{"marker-symbol":"bar","marker-color":"34495e","name":"Il Tempietto","address":"C.C. Luz del Tajo. Avda. Río Boladi","city":"Toledo","zipCode":"45007"}},{"type":"Feature","id":"","geometry":{"type":"Point","coordinates":[-6.0653538,37.34449]},"properties":{"marker-symbol":"bar","marker-color":"34495e","name":"Il Tempietto","address":"C.C. Metromar","city":"Mairena del Aljarafe","zipCode":"41927"}},{"type":"Feature","id":"","geometry":{"type":"Point","coordinates":[-4.6243528,36.5390044]},"properties":{"marker-symbol":"bar","marker-color":"34495e","name":"Il Tempietto","address":"C.C. MIRAMAR, LOCAL A-37","city":"Fuengirola","zipCode":"29640"}},{"type":"Feature","id":"","geometry":{"type":"Point","coordinates":[-3.6724649,40.3017837]},"properties":{"marker-symbol":"bar","marker-color":"34495e","name":"Il Tempietto","address":"C.C. Nassica, local 43","city":"Getafe","zipCode":"28906"}},{"type":"Feature","id":"","geometry":{"type":"Point","coordinates":[-3.5863313,40.4419938]},"properties":{"marker-symbol":"bar","marker-color":"34495e","name":"Il Tempietto","address":"C.C. PLENILUNIO, LOCAL 206","city":"Madrid","zipCode":"28022"}},{"type":"Feature","id":"","geometry":{"type":"Point","coordinates":[-3.8538222,40.2957898]},"properties":{"marker-symbol":"bar","marker-color":"34495e","name":"Il Tempietto","address":"C.C. XANADU. CTRA. N-V, KM. 23,5","city":"Arroyomolinos","zipCode":"28939"}},{"type":"Feature","id":"","geometry":{"type":"Point","coordinates":[-3.6291594,40.4343896]},"properties":{"marker-symbol":"bar","marker-color":"34495e","name":"Il Tempietto","address":"Julián Camarillo, 10","city":"Madrid","zipCode":"28037"}},{"type":"Feature","id":"","geometry":{"type":"Point","coordinates":[2.6967505,39.6001669]},"properties":{"marker-symbol":"bar","marker-color":"34495e","name":"American Country Café","address":"C.C. FESTIVAL PARK.","city":"ES PONT D'INCA - MARRATXI","zipCode":"07141"}},{"type":"Feature","id":"","geometry":{"type":"Point","coordinates":[2.6040436,39.5659486]},"properties":{"marker-symbol":"bar","marker-color":"34495e","name":"American Country Café","address":"C.C. PORTO PI,L.3503.GABRIEL ROCA 5","city":"CALA MAYOR - PALMA DE MALLORCA","zipCode":"07015"}},{"type":"Feature","id":"","geometry":{"type":"Point","coordinates":[-0.363067,39.4781137]},"properties":{"marker-symbol":"bar","marker-color":"34495e","name":"Foster's Hollywood","address":"ARTES GRAFICAS, 7 BAJO IZDA","city":"Valencia","zipCode":"46010"}},{"type":"Feature","id":"","geometry":{"type":"Point","coordinates":[-3.7935755,40.4386436]},"properties":{"marker-symbol":"bar","marker-color":"34495e","name":"Foster's Hollywood","address":"Avda. COMUNIDAD DE MADRID, 3","city":"Pozuelo de Alarcón","zipCode":"28223"}},{"type":"Feature","id":"","geometry":{"type":"Point","coordinates":[-3.867857,40.4704517]},"properties":{"marker-symbol":"bar","marker-color":"34495e","name":"Foster's Hollywood","address":"Avda. ESPAÑA,S/N","city":"Majadahonda","zipCode":"28220"}},{"type":"Feature","id":"","geometry":{"type":"Point","coordinates":[-3.8769914,40.4052478]},"properties":{"marker-symbol":"bar","marker-color":"34495e","name":"Foster's Hollywood","address":"Avda. INFANTE DON LUIS, LOC.1-2","city":"Boadilla del Monte","zipCode":"28660"}},{"type":"Feature","id":"","geometry":{"type":"Point","coordinates":[-4.6549997,40.6694065]},"properties":{"marker-symbol":"bar","marker-color":"34495e","name":"Foster's Hollywood","address":"Avda. JUAN CARLOS I, 32","city":"Ávila","zipCode":"05004"}},{"type":"Feature","id":"","geometry":{"type":"Point","coordinates":[2.1612618,41.3904096]},"properties":{"marker-symbol":"bar","marker-color":"34495e","name":"Foster's Hollywood","address":"BALMES, 76","city":"Barcelona","zipCode":"08007"}},{"type":"Feature","id":"","geometry":{"type":"Point","coordinates":[-3.8553507,40.3570031]},"properties":{"marker-symbol":"bar","marker-color":"34495e","name":"Foster's Hollywood","address":"C.C. ALCAMPO PARQUE OESTE","city":"Alcorcón","zipCode":"28922"}},{"type":"Feature","id":"","geometry":{"type":"Point","coordinates":[-0.3489496,39.4574512]},"properties":{"marker-symbol":"bar","marker-color":"34495e","name":"Foster's Hollywood","address":"C.C. AQUA MULTIESPACIO","city":"Valencia","zipCode":"46023"}},{"type":"Feature","id":"","geometry":{"type":"Point","coordinates":[-2.9825559,43.3341353]},"properties":{"marker-symbol":"bar","marker-color":"34495e","name":"Foster's Hollywood","address":"C.C. ARTEA, Bº PERURI, 33","city":"Leioa","zipCode":"48940"}},{"type":"Feature","id":"","geometry":{"type":"Point","coordinates":[-3.6471162,40.4604421]},"properties":{"marker-symbol":"bar","marker-color":"34495e","name":"Foster's Hollywood","address":"C.C. ARTURO SORIA PLAZA. LOCAL 19","city":"Madrid","zipCode":"28043"}},{"type":"Feature","id":"","geometry":{"type":"Point","coordinates":[-6.2216678,36.4744472]},"properties":{"marker-symbol":"bar","marker-color":"34495e","name":"Foster's Hollywood","address":"C.C. BAHIA SUR,HERRERA S/N,LO-12","city":"San Fernando","zipCode":"11100"}},{"type":"Feature","id":"","geometry":{"type":"Point","coordinates":[-3.0202518,43.3206637]},"properties":{"marker-symbol":"bar","marker-color":"34495e","name":"Foster's Hollywood","address":"C.C. BALLONTI, AVDA. BALLONTI, 1","city":"Portugalete","zipCode":"48920"}},{"type":"Feature","id":"","geometry":{"type":"Point","coordinates":[-0.3857862,39.4250481]},"properties":{"marker-symbol":"bar","marker-color":"34495e","name":"Foster's Hollywood","address":"C.C. CARREFOUR ALFAFAR","city":"Sedaví","zipCode":"46910"}},{"type":"Feature","id":"","geometry":{"type":"Point","coordinates":[-3.6673942,40.5614212]},"properties":{"marker-symbol":"bar","marker-color":"34495e","name":"Foster's Hollywood","address":"C.C. DIVERSIA. BRUSELAS. 21","city":"Alcobendas","zipCode":"28100"}},{"type":"Feature","id":"","geometry":{"type":"Point","coordinates":[-0.5210565,39.5628525]},"properties":{"marker-symbol":"bar","marker-color":"34495e","name":"Foster's Hollywood","address":"C.C. EL OSITO. TUEJAR, S/N","city":"Eliana (l')","zipCode":"46183"}},{"type":"Feature","id":"","geometry":{"type":"Point","coordinates":[-8.4006049,43.3804644]},"properties":{"marker-symbol":"bar","marker-color":"34495e","name":"Foster's Hollywood","address":"C.C. EL PUERTO. ALF. PROVISIONAL, 3","city":"Coruña (A)","zipCode":"15002"}},{"type":"Feature","id":"","geometry":{"type":"Point","coordinates":[-0.3607137,39.4496491]},"properties":{"marker-symbol":"bar","marker-color":"34495e","name":"Foster's Hollywood","address":"C.C. EL SALER. AUTOVIA EL SALER, 16","city":"Valencia","zipCode":"46013"}},{"type":"Feature","id":"","geometry":{"type":"Point","coordinates":[-3.7536663,40.421432]},"properties":{"marker-symbol":"bar","marker-color":"34495e","name":"Foster's Hollywood","address":"C.C. ERMITA,ERMITA DEL SANTO 48","city":"Madrid","zipCode":"28011"}},{"type":"Feature","id":"","geometry":{"type":"Point","coordinates":[-5.5892992,42.604516]},"properties":{"marker-symbol":"bar","marker-color":"34495e","name":"Foster's Hollywood","address":"C.C. ESPACIO LEON.RIO BEZNEGAS, S/N","city":"León","zipCode":"24010"}},{"type":"Feature","id":"","geometry":{"type":"Point","coordinates":[2.7829605,41.9703059]},"properties":{"marker-symbol":"bar","marker-color":"34495e","name":"Foster's Hollywood","address":"C.C. ESPAI GIRONES. CNO. CARLIN, 10","city":"Salt","zipCode":"17190"}},{"type":"Feature","id":"","geometry":{"type":"Point","coordinates":[-0.3803524,39.4352455]},"properties":{"marker-symbol":"bar","marker-color":"34495e","name":"Foster's Hollywood","address":"C.C. GRAN TURIA,LOC,289,PZA EUROPA","city":"Xirivella","zipCode":"46950"}},{"type":"Feature","id":"","geometry":{"type":"Point","coordinates":[-8.7357274,42.214405]},"properties":{"marker-symbol":"bar","marker-color":"34495e","name":"Foster's Hollywood","address":"C.C. GRAN VIA. LOCAL 214-215","city":"Vigo","zipCode":"36210"}},{"type":"Feature","id":"","geometry":{"type":"Point","coordinates":[-0.4405986,39.5020648]},"properties":{"marker-symbol":"bar","marker-color":"34495e","name":"Foster's Hollywood","address":"C.C. HERON CITY. CTRA. ADEMUZ, KM.9","city":"Paterna","zipCode":"46980"}},{"type":"Feature","id":"","geometry":{"type":"Point","coordinates":[-3.7612856,40.3626396]},"properties":{"marker-symbol":"bar","marker-color":"34495e","name":"Foster's Hollywood","address":"C.C. ISLAZUL. CALDERILLA, 1","city":"Madrid","zipCode":"28054"}},{"type":"Feature","id":"","geometry":{"type":"Point","coordinates":[-4.7743365,36.5194999]},"properties":{"marker-symbol":"bar","marker-color":"34495e","name":"Foster's Hollywood","address":"C.C. LA CAÑADA, LOCAL 88","city":"Marbella","zipCode":"29600"}},{"type":"Feature","id":"","geometry":{"type":"Point","coordinates":[-4.433644,36.7910683]},"properties":{"marker-symbol":"bar","marker-color":"34495e","name":"Foster's Hollywood","address":"C.C. LA ROSALEDA,LOCAL B-41","city":"Málaga","zipCode":"29011"}},{"type":"Feature","id":"","geometry":{"type":"Point","coordinates":[-0.7437761,38.2825985]},"properties":{"marker-symbol":"bar","marker-color":"34495e","name":"Foster's Hollywood","address":"C.C. L'ALJUB. JACARILLA, S/N","city":"Elche/Elx","zipCode":"03205"}},{"type":"Feature","id":"","geometry":{"type":"Point","coordinates":[1.2217459,41.1236157]},"properties":{"marker-symbol":"bar","marker-color":"34495e","name":"Foster's Hollywood","address":"C.C. Les Gavarres, local 14-15. Fol","city":"Tarragona","zipCode":"43006"}},{"type":"Feature","id":"","geometry":{"type":"Point","coordinates":[-3.3338547,40.5105476]},"properties":{"marker-symbol":"bar","marker-color":"34495e","name":"Foster's Hollywood","address":"C.C. LOS CUADERNILLOS","city":"Alcalá de Henares","zipCode":"28805"}},{"type":"Feature","id":"","geometry":{"type":"Point","coordinates":[-3.9164585,39.8639609]},"properties":{"marker-symbol":"bar","marker-color":"34495e","name":"Foster's Hollywood","address":"C.C. LUZ DEL TAJO,LOCAL 224","city":"Toledo","zipCode":"45007"}},{"type":"Feature","id":"","geometry":{"type":"Point","coordinates":[-3.0025615,43.2660332]},"properties":{"marker-symbol":"bar","marker-color":"34495e","name":"Foster's Hollywood","address":"C.C. MAX OCIO, LOCAL 10","city":"Barakaldo","zipCode":"48903"}},{"type":"Feature","id":"","geometry":{"type":"Point","coordinates":[-4.104212,40.5761031]},"properties":{"marker-symbol":"bar","marker-color":"34495e","name":"Foster's Hollywood","address":"C.C. Megapark","city":"San Sebastián de los Reyes","zipCode":"28700"}},{"type":"Feature","id":"","geometry":{"type":"Point","coordinates":[-4.6243528,36.5390044]},"properties":{"marker-symbol":"bar","marker-color":"34495e","name":"Foster's Hollywood","address":"C.C. MIRAMAR, LOCAL A-31/T-31","city":"Fuengirola","zipCode":"29640"}},{"type":"Feature","id":"","geometry":{"type":"Point","coordinates":[-3.6957517,40.5052554]},"properties":{"marker-symbol":"bar","marker-color":"34495e","name":"Foster's Hollywood","address":"C.C. MONTECARMELO","city":"Madrid","zipCode":"28049"}},{"type":"Feature","id":"","geometry":{"type":"Point","coordinates":[-0.380721,39.4845265]},"properties":{"marker-symbol":"bar","marker-color":"34495e","name":"Foster's Hollywood","address":"C.C. NUEVO CENTRO, 143-144. PIO XII","city":"Valencia","zipCode":"46009"}},{"type":"Feature","id":"","geometry":{"type":"Point","coordinates":[-0.4903171,38.3378268]},"properties":{"marker-symbol":"bar","marker-color":"34495e","name":"Foster's Hollywood","address":"C.C. PANORAMIX. MUELLE PONIENTE, 6","city":"Alicante/Alacant","zipCode":"03001"}},{"type":"Feature","id":"","geometry":{"type":"Point","coordinates":[-0.9748978,37.6106974]},"properties":{"marker-symbol":"bar","marker-color":"34495e","name":"Foster's Hollywood","address":"C.C. Parque Mediterráneo","city":"Cartagena","zipCode":"30203"}},{"type":"Feature","id":"","geometry":{"type":"Point","coordinates":[-5.9978005,37.3869561]},"properties":{"marker-symbol":"bar","marker-color":"34495e","name":"Foster's Hollywood","address":"C.C. Plaza de Armas, local 247","city":"Sevilla","zipCode":"41001"}},{"type":"Feature","id":"","geometry":{"type":"Point","coordinates":[-3.8057542,40.2834632]},"properties":{"marker-symbol":"bar","marker-color":"34495e","name":"Foster's Hollywood","address":"C.C. PLAZA ESTACION. HUNGRIA,S/N","city":"Fuenlabrada","zipCode":"28943"}},{"type":"Feature","id":"","geometry":{"type":"Point","coordinates":[-0.9964085,41.6417756]},"properties":{"marker-symbol":"bar","marker-color":"34495e","name":"Foster's Hollywood","address":"C.C. PLAZA IMPERIAL, LOCAL P-54","city":"Zaragoza","zipCode":"50197"}},{"type":"Feature","id":"","geometry":{"type":"Point","coordinates":[-0.5334876,38.99088]},"properties":{"marker-symbol":"bar","marker-color":"34495e","name":"Foster's Hollywood","address":"C.C. PLAZA MAYOR - RONDA NORD","city":"Xàtiva","zipCode":"46800"}},{"type":"Feature","id":"","geometry":{"type":"Point","coordinates":[-0.3768049,39.4702393]},"properties":{"marker-symbol":"bar","marker-color":"34495e","name":"Foster's Hollywood","address":"C.C. PLAZA MAYOR,LOC.5-6,RAFALCAID","city":"Gandia","zipCode":"46700"}},{"type":"Feature","id":"","geometry":{"type":"Point","coordinates":[-4.5002731,36.6217866]},"properties":{"marker-symbol":"bar","marker-color":"34495e","name":"Foster's Hollywood","address":"C.C. PLAZA MAYOR. PONCE DE LEON, 3","city":"Torremolinos","zipCode":"29004"}},{"type":"Feature","id":"","geometry":{"type":"Point","coordinates":[-0.038487,39.9876445]},"properties":{"marker-symbol":"bar","marker-color":"34495e","name":"Foster's Hollywood","address":"C.C. Puerto Azahar. Pº Buenavista,","city":"Castellón de la Plana/Castelló de l","zipCode":"12001"}},{"type":"Feature","id":"","geometry":{"type":"Point","coordinates":[-3.5442087,40.3497989]},"properties":{"marker-symbol":"bar","marker-color":"34495e","name":"Foster's Hollywood","address":"C.C. RIVAS,AVDA.TECNICA S/N","city":"Rivas-Vaciamadrid","zipCode":"28529"}},{"type":"Feature","id":"","geometry":{"type":"Point","coordinates":[-4.4323576,36.7091025]},"properties":{"marker-symbol":"bar","marker-color":"34495e","name":"Foster's Hollywood","address":"C.C. VIALIA MALAGA","city":"Málaga","zipCode":"29002"}},{"type":"Feature","id":"","geometry":{"type":"Point","coordinates":[-5.9753267,37.3628073]},"properties":{"marker-symbol":"bar","marker-color":"34495e","name":"Foster's Hollywood","address":"C.C. Viapol Center. Avda. Diego Mar","city":"Sevilla","zipCode":"41013"}},{"type":"Feature","id":"","geometry":{"type":"Point","coordinates":[-3.9202906,40.2688395]},"properties":{"marker-symbol":"bar","marker-color":"34495e","name":"Foster's Hollywood","address":"C.C. XANADU,LOCAL R4,CTRA N-5,KM 23","city":"Arroyomolinos","zipCode":"28939"}},{"type":"Feature","id":"","geometry":{"type":"Point","coordinates":[-3.6395141,40.4072602]},"properties":{"marker-symbol":"bar","marker-color":"34495e","name":"Foster's Hollywood","address":"CDOR. DIEGO DE VALDERRABANO, 25-L.6","city":"Madrid","zipCode":"28030"}},{"type":"Feature","id":"","geometry":{"type":"Point","coordinates":[-3.6951069,40.4271872]},"properties":{"marker-symbol":"bar","marker-color":"34495e","name":"Foster's Hollywood","address":"GENOVA, 6","city":"Madrid","zipCode":"28004"}},{"type":"Feature","id":"","geometry":{"type":"Point","coordinates":[-0.3726526,39.4655734]},"properties":{"marker-symbol":"bar","marker-color":"34495e","name":"Foster's Hollywood","address":"GRAN VIA MARQUES DEL TURIA, 16","city":"Valencia","zipCode":"46005"}},{"type":"Feature","id":"","geometry":{"type":"Point","coordinates":[-1.856195,38.996334]},"properties":{"marker-symbol":"bar","marker-color":"34495e","name":"Foster's Hollywood","address":"Plaza LA MANCHA, 17","city":"Albacete","zipCode":"02001"}},{"type":"Feature","id":"","geometry":{"type":"Point","coordinates":[-2.4637123,36.8414836]},"properties":{"marker-symbol":"bar","marker-color":"34495e","name":"Foster's Hollywood","address":"PUERTA PURCHENA, S/N","city":"Almería","zipCode":"04001"}},{"type":"Feature","id":"","geometry":{"type":"Point","coordinates":[-3.6768891,40.4452274]},"properties":{"marker-symbol":"bar","marker-color":"34495e","name":"Foster's Hollywood","address":"PZA.SAGRADO CORAZON DE JESUS, 2","city":"Madrid","zipCode":"28013"}},{"type":"Feature","id":"","geometry":{"type":"Point","coordinates":[-3.6291334,40.4341505]},"properties":{"marker-symbol":"bar","marker-color":"34495e","name":"Foster's Hollywood","address":"Santa Leonor, 59","city":"Madrid","zipCode":"28037"}},{"type":"Feature","id":"","geometry":{"type":"Point","coordinates":[-15.4828129,28.1346399]},"properties":{"marker-symbol":"bar","marker-color":"34495e","name":"ADK","address":"Av. Del Atlántico s/n","city":"Las Palmas de Gran Canaria","zipCode":"35110"}},{"type":"Feature","id":"","geometry":{"type":"Point","coordinates":[-3.6737304,40.4022079]},"properties":{"marker-symbol":"bar","marker-color":"34495e","name":"ADK","address":"Av. Andalucía Km 7,1","city":"Madrid","zipCode":"28041"}},{"type":"Feature","id":"","geometry":{"type":"Point","coordinates":[-15.6512444,28.1463262]},"properties":{"marker-symbol":"bar","marker-color":"34495e","name":"ADK","address":"C/Drago 42","city":"Galdar","zipCode":"35460"}},{"type":"Feature","id":"","geometry":{"type":"Point","coordinates":[1.521815599999968,42.5075314]},"properties":{"marker-symbol":"bar","marker-color":"34495e","name":"ADK","address":"CC ILLA CARLEMANY","city":"Andorra","zipCode":"AD500"}},{"type":"Feature","id":"","geometry":{"type":"Point","coordinates":[-15.4174895,28.0080646]},"properties":{"marker-symbol":"bar","marker-color":"34495e","name":"ADK","address":"Carretera de Jinamar a Telde 67","city":"Telde","zipCode":"35218"}},{"type":"Feature","id":"","geometry":{"type":"Point","coordinates":[-15.4279003,28.1488114]},"properties":{"marker-symbol":"bar","marker-color":"34495e","name":"ADK","address":"C/ Juan Rejón 29","city":"Las Palmas de Gran Canaria","zipCode":"35008"}},{"type":"Feature","id":"","geometry":{"type":"Point","coordinates":[-16.6232359,28.0821387]},"properties":{"marker-symbol":"bar","marker-color":"34495e","name":"ADK","address":"Autopista del Norte TF5 salida norte, C.C. La Villa local 052 b","city":"Santa Cruz de Tenerife","zipCode":"38312"}},{"type":"Feature","id":"","geometry":{"type":"Point","coordinates":[-15.4337712,28.1344312]},"properties":{"marker-symbol":"bar","marker-color":"34495e","name":"ADK","address":"C/Mesa y López 27","city":"Las Palmas de Gran Canaria","zipCode":"35006"}},{"type":"Feature","id":"","geometry":{"type":"Point","coordinates":[-15.4308534,28.1105277]},"properties":{"marker-symbol":"bar","marker-color":"34495e","name":"ADK","address":"C/Pedro Infinito 22","city":"Las Palmas de Gran Canaria","zipCode":"35012"}},{"type":"Feature","id":"","geometry":{"type":"Point","coordinates":[1.5332978,42.5554593]},"properties":{"marker-symbol":"bar","marker-color":"34495e","name":"ADK","address":"","city":"Ordino","zipCode":"AD300"}},{"type":"Feature","id":"","geometry":{"type":"Point","coordinates":[-16.2507433,28.4589002]},"properties":{"marker-symbol":"bar","marker-color":"34495e","name":"ADK","address":"Carmen Monteverde Edif. 64","city":"Santa Cruz de Tenerife","zipCode":"38003"}},{"type":"Feature","id":"","geometry":{"type":"Point","coordinates":[-15.579857500000003,28.0404155]},"properties":{"marker-symbol":"bar","marker-color":"34495e","name":"ADK","address":"Avda. Playa 12","city":"Lanzarote","zipCode":"35340"}},{"type":"Feature","id":"","geometry":{"type":"Point","coordinates":[-3.3942758,37.0930767]},"properties":{"marker-symbol":"bar","marker-color":"34495e","name":"ADK","address":"Plaza de Andalucía s/n Edif. Enebro","city":"Sierra Nevada","zipCode":"18196"}},{"type":"Feature","id":"","geometry":{"type":"Point","coordinates":[-15.4694793,28.1027089]},"properties":{"marker-symbol":"bar","marker-color":"34495e","name":"ADK","address":"C/ Jerusalen 37 bajo","city":"Tamaraceite","zipCode":"35018"}},{"type":"Feature","id":"","geometry":{"type":"Point","coordinates":[-15.4163261,28.1058017]},"properties":{"marker-symbol":"bar","marker-color":"34495e","name":"ADK","address":"C/Mayor de Triana 76","city":"Las Palmas de Gran Canaria","zipCode":"35002"}},{"type":"Feature","id":"","geometry":{"type":"Point","coordinates":[-15.4133409,28.1020123]},"properties":{"marker-symbol":"bar","marker-color":"34495e","name":"ADK","address":"C/ Mendizábal s/n","city":"Las Palmas de Gran Canaria","zipCode":"35001"}},{"type":"Feature","id":"","geometry":{"type":"Point","coordinates":[-4.5037994,36.6684704]},"properties":{"marker-symbol":"bar","marker-color":"34495e","name":"ADK","address":"C.C. PLAZA MAYOR","city":"Málaga","zipCode":"29000"}},{"type":"Feature","id":"","geometry":{"type":"Point","coordinates":[-3.5895431,40.4447867]},"properties":{"marker-symbol":"bar","marker-color":"34495e","name":"ADK","address":"C.C. PLENILUNIO. C/ARACNE, 3","city":"Madrid","zipCode":"28022"}},{"type":"Feature","id":"","geometry":{"type":"Point","coordinates":[-3.7451941,40.3871146]},"properties":{"marker-symbol":"bar","marker-color":"34495e","name":"ADK","address":"GUABAIRO, 8","city":"Madrid","zipCode":"28000"}},{"type":"Feature","id":"","geometry":{"type":"Point","coordinates":[-17.764308,28.6827472]},"properties":{"marker-symbol":"bar","marker-color":"34495e","name":"ADK","address":"Avda. MARITIMA, 23","city":"Santa Cruz de la Palma","zipCode":"38700"}},{"type":"Feature","id":"","geometry":{"type":"Point","coordinates":[-15.4342388,28.1343755]},"properties":{"marker-symbol":"bar","marker-color":"34495e","name":"ADK","address":"Avda. MESA Y LOPEZ, 27","city":"GRAN CANARIA","zipCode":"35006"}},{"type":"Feature","id":"","geometry":{"type":"Point","coordinates":[-3.6909402,40.4656815]},"properties":{"marker-symbol":"bar","marker-color":"34495e","name":"ADK","address":"BRAVO MURILLO, 377","city":"Madrid","zipCode":"28000"}},{"type":"Feature","id":"","geometry":{"type":"Point","coordinates":[-15.4126652,28.1696925]},"properties":{"marker-symbol":"bar","marker-color":"34495e","name":"ADK","address":"C.C. AGUILA ROJA. FUERTEVENTURA, 10","city":"GRAN CANARIA","zipCode":"35008"}},{"type":"Feature","id":"","geometry":{"type":"Point","coordinates":[-15.437882,27.8474614]},"properties":{"marker-symbol":"bar","marker-color":"34495e","name":"ADK","address":"C.C. ATLANTICO","city":"Santa Lucía de Tirajana","zipCode":"35110"}},{"type":"Feature","id":"","geometry":{"type":"Point","coordinates":[-15.4368286,28.1077302]},"properties":{"marker-symbol":"bar","marker-color":"34495e","name":"ADK","address":"C.C. LA BALLENA, PLANTA ALTA","city":"GRAN CANARIA","zipCode":"35012"}},{"type":"Feature","id":"","geometry":{"type":"Point","coordinates":[-15.4741787,28.1255452]},"properties":{"marker-symbol":"bar","marker-color":"34495e","name":"ADK","address":"C.C. LAS ARENAS, PLANTA ALTA","city":"GRAN CANARIA","zipCode":"35010"}},{"type":"Feature","id":"","geometry":{"type":"Point","coordinates":[-15.7116464,27.8327218]},"properties":{"marker-symbol":"bar","marker-color":"34495e","name":"ADK","address":"C.C. PUERTO RICO, LOCAL 44","city":"Mogán","zipCode":"35140"}},{"type":"Feature","id":"","geometry":{"type":"Point","coordinates":[-15.4258448,28.0440732]},"properties":{"marker-symbol":"bar","marker-color":"34495e","name":"ADK","address":"C.C. SIETE PALMAS, PLANTA ALTA","city":"GRAN CANARIA","zipCode":"35019"}},{"type":"Feature","id":"","geometry":{"type":"Point","coordinates":[-15.4401427,28.0117292]},"properties":{"marker-symbol":"bar","marker-color":"34495e","name":"ADK","address":"C.C. TELDE","city":"Telde","zipCode":"35218"}},{"type":"Feature","id":"","geometry":{"type":"Point","coordinates":[-15.5855438,27.764481]},"properties":{"marker-symbol":"bar","marker-color":"34495e","name":"ADK","address":"C.C. YUMBO, LOCAL 1 PLANTA 2","city":"San Bartolomé de Tirajana","zipCode":"35290"}},{"type":"Feature","id":"","geometry":{"type":"Point","coordinates":[-15.4470413,28.0632413]},"properties":{"marker-symbol":"bar","marker-color":"34495e","name":"ADK","address":"Ctra. DEL FONDILLO, 62","city":"TAFIRA BAJA (GRAN CANARIA)","zipCode":"35017"}},{"type":"Feature","id":"","geometry":{"type":"Point","coordinates":[-15.4060758,28.0156506]},"properties":{"marker-symbol":"bar","marker-color":"34495e","name":"ADK","address":"Ctra. GRAL. DE JINAMAR","city":"Telde","zipCode":"35218"}},{"type":"Feature","id":"","geometry":{"type":"Point","coordinates":[2.0026838,41.3042851]},"properties":{"marker-symbol":"bar","marker-color":"34495e","name":"ADK","address":"SANT PERE, 56","city":"Gavà","zipCode":"08850"}},{"type":"Feature","id":"","geometry":{"type":"Point","coordinates":[2.2507317,41.4518333]},"properties":{"marker-symbol":"bar","marker-color":"34495e","name":"CANTINA MARIACHI. 100% Original Mex","address":"C.C. \"\"MAGIC BADALONA\"\", LOCAL A-4","city":"Badalona","zipCode":"08911"}},{"type":"Feature","id":"","geometry":{"type":"Point","coordinates":[-16.3081194,28.4589782]},"properties":{"marker-symbol":"bar","marker-color":"34495e","name":"CANTINA MARIACHI. 100% Original Mex","address":"C.C. ALCAMPO LA LAGUNA, LOCAL 12","city":"San Cristóbal de La Laguna","zipCode":"38296"}},{"type":"Feature","id":"","geometry":{"type":"Point","coordinates":[-0.3489496,39.4574512]},"properties":{"marker-symbol":"bar","marker-color":"34495e","name":"CANTINA MARIACHI. 100% Original Mex","address":"C.C. AQUA CENTER. MENORCA, S/N","city":"Valencia","zipCode":"46023"}},{"type":"Feature","id":"","geometry":{"type":"Point","coordinates":[-15.4448838,27.8491563]},"properties":{"marker-symbol":"bar","marker-color":"34495e","name":"CANTINA MARIACHI. 100% Original Mex","address":"C.C. ATLANTICO,AVDA ATLANTICO, S/N","city":"Santa Lucía de Tirajana","zipCode":"35110"}},{"type":"Feature","id":"","geometry":{"type":"Point","coordinates":[1.8629309,41.7275587]},"properties":{"marker-symbol":"bar","marker-color":"34495e","name":"CANTINA MARIACHI. 100% Original Mex","address":"C.C. BAGES CENTRE,LOCAL 3","city":"Manresa","zipCode":"08240"}},{"type":"Feature","id":"","geometry":{"type":"Point","coordinates":[2.1806423,41.436921]},"properties":{"marker-symbol":"bar","marker-color":"34495e","name":"CANTINA MARIACHI. 100% Original Mex","address":"C.C. BARCELONA GLORIAS, LOCAL B-105","city":"Barcelona","zipCode":"08016"}},{"type":"Feature","id":"","geometry":{"type":"Point","coordinates":[2.1247233,41.5159611]},"properties":{"marker-symbol":"bar","marker-color":"34495e","name":"CANTINA MARIACHI. 100% Original Mex","address":"C.C. BARICENTRO,LOCAL B-205","city":"Barberà del Vallès","zipCode":"08210"}},{"type":"Feature","id":"","geometry":{"type":"Point","coordinates":[-0.4613582,39.4650522]},"properties":{"marker-symbol":"bar","marker-color":"34495e","name":"CANTINA MARIACHI. 100% Original Mex","address":"C.C. BONAIRE, LOCAL 616","city":"Aldaia","zipCode":"46960"}},{"type":"Feature","id":"","geometry":{"type":"Point","coordinates":[2.2113698,41.4075609]},"properties":{"marker-symbol":"bar","marker-color":"34495e","name":"CANTINA MARIACHI. 100% Original Mex","address":"C.C. DIAGONAL MAR, LOCAL 30-34","city":"Barcelona","zipCode":"08019"}},{"type":"Feature","id":"","geometry":{"type":"Point","coordinates":[-0.7239673,37.6645234]},"properties":{"marker-symbol":"bar","marker-color":"34495e","name":"CANTINA MARIACHI. 100% Original Mex","address":"C.C. Dos Mares","city":"San Javier","zipCode":"30730"}},{"type":"Feature","id":"","geometry":{"type":"Point","coordinates":[2.0812289,41.5574545]},"properties":{"marker-symbol":"bar","marker-color":"34495e","name":"CANTINA MARIACHI. 100% Original Mex","address":"C.C. EIX MACIA. AVDA. F.MACIA, 37","city":"Sabadell","zipCode":"08206"}},{"type":"Feature","id":"","geometry":{"type":"Point","coordinates":[-6.3456061,38.9158586]},"properties":{"marker-symbol":"bar","marker-color":"34495e","name":"CANTINA MARIACHI. 100% Original Mex","address":"C.C. EL FORO. AVDA. PORTUGAL, S/N","city":"Mérida","zipCode":"06800"}},{"type":"Feature","id":"","geometry":{"type":"Point","coordinates":[-4.1411406,36.7639478]},"properties":{"marker-symbol":"bar","marker-color":"34495e","name":"CANTINA MARIACHI. 100% Original Mex","address":"C.C. EL INGENIO,JUAN CARLOS I, S/N","city":"Vélez-Málaga","zipCode":"29700"}},{"type":"Feature","id":"","geometry":{"type":"Point","coordinates":[-0.3607137,39.4496491]},"properties":{"marker-symbol":"bar","marker-color":"34495e","name":"CANTINA MARIACHI. 100% Original Mex","address":"C.C. EL SALER, LOCAL 14 PLANTA 1","city":"Valencia","zipCode":"46013"}},{"type":"Feature","id":"","geometry":{"type":"Point","coordinates":[-0.9462345,37.6268999]},"properties":{"marker-symbol":"bar","marker-color":"34495e","name":"CANTINA MARIACHI. 100% Original Mex","address":"C.C. ESPACIO MEDITERRANEO","city":"Cartagena","zipCode":"30395"}},{"type":"Feature","id":"","geometry":{"type":"Point","coordinates":[2.728219,39.6302142]},"properties":{"marker-symbol":"bar","marker-color":"34495e","name":"CANTINA MARIACHI. 100% Original Mex","address":"C.C. FESTIVAL PARK","city":"Palma","zipCode":"07141"}},{"type":"Feature","id":"","geometry":{"type":"Point","coordinates":[2.1699187,41.387917]},"properties":{"marker-symbol":"bar","marker-color":"34495e","name":"CANTINA MARIACHI. 100% Original Mex","address":"C.C. GRAN VIA 2, LOCAL C3/T3","city":"Hospitalet de Llobregat (L')","zipCode":"08908"}},{"type":"Feature","id":"","geometry":{"type":"Point","coordinates":[-3.7003454,40.4166909]},"properties":{"marker-symbol":"bar","marker-color":"34495e","name":"CANTINA MARIACHI. 100% Original Mex","address":"C.C. HERON CITY LAS ROZAS, LOCAL 4","city":"Rozas de Madrid (Las)","zipCode":"28230"}},{"type":"Feature","id":"","geometry":{"type":"Point","coordinates":[-3.6081631,37.2226455]},"properties":{"marker-symbol":"bar","marker-color":"34495e","name":"CANTINA MARIACHI. 100% Original Mex","address":"C.C. KINEPOLIS. B.BILLY WILDER, S/N","city":"Pulianas","zipCode":"18197"}},{"type":"Feature","id":"","geometry":{"type":"Point","coordinates":[2.196618,41.4378689]},"properties":{"marker-symbol":"bar","marker-color":"34495e","name":"CANTINA MARIACHI. 100% Original Mex","address":"C.C. LA MAQUINISTA, LOCAL A-15","city":"Barcelona","zipCode":"08030"}},{"type":"Feature","id":"","geometry":{"type":"Point","coordinates":[-0.1324486,38.6006633]},"properties":{"marker-symbol":"bar","marker-color":"34495e","name":"CANTINA MARIACHI. 100% Original Mex","address":"C.C. LA MARINA FINESTRAT,L.64 Y 67A","city":"Finestrat","zipCode":"03509"}},{"type":"Feature","id":"","geometry":{"type":"Point","coordinates":[-0.403094,39.1432679]},"properties":{"marker-symbol":"bar","marker-color":"34495e","name":"CANTINA MARIACHI. 100% Original Mex","address":"C.C. LA RIBERA, CARREFOUR ALZIRA,L.","city":"Alzira","zipCode":"46600"}},{"type":"Feature","id":"","geometry":{"type":"Point","coordinates":[-0.1752525,38.9745017]},"properties":{"marker-symbol":"bar","marker-color":"34495e","name":"CANTINA MARIACHI. 100% Original Mex","address":"C.C. LA VITAL. LOCAL A-20","city":"Gandia","zipCode":"46701"}},{"type":"Feature","id":"","geometry":{"type":"Point","coordinates":[-0.7437761,38.2825985]},"properties":{"marker-symbol":"bar","marker-color":"34495e","name":"CANTINA MARIACHI. 100% Original Mex","address":"C.C. L'ALJUB, LOCAL 21A, 2ª PLANTA","city":"Elche/Elx","zipCode":"03205"}},{"type":"Feature","id":"","geometry":{"type":"Point","coordinates":[-15.4741787,28.1255452]},"properties":{"marker-symbol":"bar","marker-color":"34495e","name":"CANTINA MARIACHI. 100% Original Mex","address":"C.C. LAS ARENAS, LOCAL 21. PAVIA, 1","city":"Palmas de Gran Canaria (Las)","zipCode":"35010"}},{"type":"Feature","id":"","geometry":{"type":"Point","coordinates":[-3.9398861,38.9722005]},"properties":{"marker-symbol":"bar","marker-color":"34495e","name":"CANTINA MARIACHI. 100% Original Mex","address":"C.C. LAS VIAS, LOCAL 1","city":"Ciudad Real","zipCode":"13005"}},{"type":"Feature","id":"","geometry":{"type":"Point","coordinates":[2.0704325,41.3556129]},"properties":{"marker-symbol":"bar","marker-color":"34495e","name":"CANTINA MARIACHI. 100% Original Mex","address":"C.C. LLOBREGAT CENTRE, LOCAL C-13","city":"Cornellà de Llobregat","zipCode":"08940"}},{"type":"Feature","id":"","geometry":{"type":"Point","coordinates":[-5.9541824,37.4011335]},"properties":{"marker-symbol":"bar","marker-color":"34495e","name":"CANTINA MARIACHI. 100% Original Mex","address":"C.C. LOS ARCOS,LOCAL A-12","city":"Sevilla","zipCode":"41007"}},{"type":"Feature","id":"","geometry":{"type":"Point","coordinates":[-3.3338547,40.5105476]},"properties":{"marker-symbol":"bar","marker-color":"34495e","name":"CANTINA MARIACHI. 100% Original Mex","address":"C.C. LOS CUADERNILLOS, LOCAL 13A","city":"Alcalá de Henares","zipCode":"28805"}},{"type":"Feature","id":"","geometry":{"type":"Point","coordinates":[-5.8274722,43.3812292]},"properties":{"marker-symbol":"bar","marker-color":"34495e","name":"CANTINA MARIACHI. 100% Original Mex","address":"C.C. LOS PRADOS,LOCAL 11","city":"Oviedo","zipCode":"33011"}},{"type":"Feature","id":"","geometry":{"type":"Point","coordinates":[2.4455818,41.5602897]},"properties":{"marker-symbol":"bar","marker-color":"34495e","name":"CANTINA MARIACHI. 100% Original Mex","address":"C.C. MATARO PARK,LOCAL 91","city":"Mataró","zipCode":"08304"}},{"type":"Feature","id":"","geometry":{"type":"Point","coordinates":[1.9021424,41.5160856]},"properties":{"marker-symbol":"bar","marker-color":"34495e","name":"CANTINA MARIACHI. 100% Original Mex","address":"C.C. MONSERRAT CENTRE, LOCAL 16","city":"Abrera","zipCode":"08630"}},{"type":"Feature","id":"","geometry":{"type":"Point","coordinates":[-3.6724649,40.3017837]},"properties":{"marker-symbol":"bar","marker-color":"34495e","name":"CANTINA MARIACHI. 100% Original Mex","address":"C.C. NASSICA GETAFE, LOCAL 51","city":"Getafe","zipCode":"28906"}},{"type":"Feature","id":"","geometry":{"type":"Point","coordinates":[-3.6243133,37.1697289]},"properties":{"marker-symbol":"bar","marker-color":"34495e","name":"CANTINA MARIACHI. 100% Original Mex","address":"C.C. NEPTUNO,LOCAL 7, 2ª PLANTA","city":"Granada","zipCode":"18004"}},{"type":"Feature","id":"","geometry":{"type":"Point","coordinates":[-1.1222081,37.9865]},"properties":{"marker-symbol":"bar","marker-color":"34495e","name":"CANTINA MARIACHI. 100% Original Mex","address":"C.C. Nueva Condomina","city":"Murcia","zipCode":"30110"}},{"type":"Feature","id":"","geometry":{"type":"Point","coordinates":[-0.481006,38.3452032]},"properties":{"marker-symbol":"bar","marker-color":"34495e","name":"CANTINA MARIACHI. 100% Original Mex","address":"C.C. OZONE. CTRA. CREVILLENTE,KM.34","city":"Torrevieja","zipCode":"03180"}},{"type":"Feature","id":"","geometry":{"type":"Point","coordinates":[-6.2926569,36.5296879]},"properties":{"marker-symbol":"bar","marker-color":"34495e","name":"CANTINA MARIACHI. 100% Original Mex","address":"C.C. PARQUE BAHIA MAR","city":"Puerto de Santa María (El)","zipCode":"11500"}},{"type":"Feature","id":"","geometry":{"type":"Point","coordinates":[-4.4929809,36.6748624]},"properties":{"marker-symbol":"bar","marker-color":"34495e","name":"CANTINA MARIACHI. 100% Original Mex","address":"C.C. PLAZA MAYOR, LOCAL 29","city":"Málaga","zipCode":"29004"}},{"type":"Feature","id":"","geometry":{"type":"Point","coordinates":[-3.5863313,40.4419938]},"properties":{"marker-symbol":"bar","marker-color":"34495e","name":"CANTINA MARIACHI. 100% Original Mex","address":"C.C. PLENILUNIO, LOCAL 219","city":"Madrid","zipCode":"28022"}},{"type":"Feature","id":"","geometry":{"type":"Point","coordinates":[-0.5234193,38.2969628]},"properties":{"marker-symbol":"bar","marker-color":"34495e","name":"CANTINA MARIACHI. 100% Original Mex","address":"C.C. PUERTA DE ALICANTE, LOCAL 13","city":"Alicante/Alacant","zipCode":"03008"}},{"type":"Feature","id":"","geometry":{"type":"Point","coordinates":[-4.2755042,36.7156658]},"properties":{"marker-symbol":"bar","marker-color":"34495e","name":"CANTINA MARIACHI. 100% Original Mex","address":"C.C. RINCON DE LA VICTORIA,LOC.8,2ª","city":"Rincón de la Victoria","zipCode":"29730"}},{"type":"Feature","id":"","geometry":{"type":"Point","coordinates":[-3.5053993,40.3426361]},"properties":{"marker-symbol":"bar","marker-color":"34495e","name":"CANTINA MARIACHI. 100% Original Mex","address":"C.C. RIVAS FUTURA, LOCAL RB10","city":"Rivas-Vaciamadrid","zipCode":"28521"}},{"type":"Feature","id":"","geometry":{"type":"Point","coordinates":[-0.481006,38.3452032]},"properties":{"marker-symbol":"bar","marker-color":"34495e","name":"CANTINA MARIACHI. 100% Original Mex","address":"C.C. SAN VICENTE OUTLET PARK","city":"San Vicente del Raspeig/Sant Vicent","zipCode":"03690"}},{"type":"Feature","id":"","geometry":{"type":"Point","coordinates":[-0.3857862,39.4250481]},"properties":{"marker-symbol":"bar","marker-color":"34495e","name":"CANTINA MARIACHI. 100% Original Mex","address":"C.C. SEDAVI,AVDA.MEDITERRANEO, 24","city":"Sedaví","zipCode":"46910"}},{"type":"Feature","id":"","geometry":{"type":"Point","coordinates":[-1.1257082,38.0471977]},"properties":{"marker-symbol":"bar","marker-color":"34495e","name":"CANTINA MARIACHI. 100% Original Mex","address":"C.C. THADER. AVDA.JUAN CARLOS I,S/N","city":"Murcia","zipCode":"30110"}},{"type":"Feature","id":"","geometry":{"type":"Point","coordinates":[-4.8209596,41.5502477]},"properties":{"marker-symbol":"bar","marker-color":"34495e","name":"CANTINA MARIACHI. 100% Original Mex","address":"C.C. VALLSUR, LOCAL 11","city":"Valladolid","zipCode":"47008"}},{"type":"Feature","id":"","geometry":{"type":"Point","coordinates":[-3.9164585,40.2734026]},"properties":{"marker-symbol":"bar","marker-color":"34495e","name":"CANTINA MARIACHI. 100% Original Mex","address":"C.C. XANADU, CTRA.N-V, LOCAL R4C","city":"ARROYO MOLINOS","zipCode":"28939"}},{"type":"Feature","id":"","geometry":{"type":"Point","coordinates":[-5.6619012,40.9646468]},"properties":{"marker-symbol":"bar","marker-color":"34495e","name":"CANTINA MARIACHI. 100% Original Mex","address":"OBISPO JARRIN, 14","city":"Salamanca","zipCode":"37001"}},{"type":"Feature","id":"","geometry":{"type":"Point","coordinates":[-0.2117525,39.6611619]},"properties":{"marker-symbol":"bar","marker-color":"34495e","name":"CANTINA MARIACHI. 100% Original Mex","address":"VIRGEN DE LOSAR, 10","city":"Sagunto/Sagunt","zipCode":"46520"}},{"type":"Feature","id":"","geometry":{"type":"Point","coordinates":[2.1699187,41.387917]},"properties":{"marker-symbol":"bar","marker-color":"34495e","name":"CANTINA MARIACHI. 100% Original Mex","address":"AEROPUERTO EL PRAT (TERM. 1)","city":"Prat de Llobregat (El)","zipCode":"08820"}},{"type":"Feature","id":"","geometry":{"type":"Point","coordinates":[-0.3898518,39.4689144]},"properties":{"marker-symbol":"bar","marker-color":"34495e","name":"Crapa Pelata","address":"ALBERIQUE, 41","city":"Valencia","zipCode":"46007"}},{"type":"Feature","id":"","geometry":{"type":"Point","coordinates":[-0.3598289,39.4759123]},"properties":{"marker-symbol":"bar","marker-color":"34495e","name":"Crapa Pelata","address":"ARTES GRAFICAS, 34","city":"Valencia","zipCode":"46010"}},{"type":"Feature","id":"","geometry":{"type":"Point","coordinates":[-0.5730313,39.5485365]},"properties":{"marker-symbol":"bar","marker-color":"34495e","name":"Crapa Pelata","address":"Avda. CORTES VALENCIANAS, 33","city":"Eliana (l')","zipCode":"46183"}},{"type":"Feature","id":"","geometry":{"type":"Point","coordinates":[-0.3470253,39.4589783]},"properties":{"marker-symbol":"bar","marker-color":"34495e","name":"Crapa Pelata","address":"Avda. FRANCIA, 36","city":"Valencia","zipCode":"46023"}},{"type":"Feature","id":"","geometry":{"type":"Point","coordinates":[-0.4078058,39.4909035]},"properties":{"marker-symbol":"bar","marker-color":"34495e","name":"Crapa Pelata","address":"BENIFAIRO, 7 - LOCAL 3","city":"Valencia","zipCode":"46015"}},{"type":"Feature","id":"","geometry":{"type":"Point","coordinates":[-0.4125169,39.5296088]},"properties":{"marker-symbol":"bar","marker-color":"34495e","name":"Crapa Pelata","address":"BIRLER, 3","city":"Rocafort","zipCode":"46111"}},{"type":"Feature","id":"","geometry":{"type":"Point","coordinates":[-0.4405986,39.5020648]},"properties":{"marker-symbol":"bar","marker-color":"34495e","name":"Crapa Pelata","address":"Calle 29, 30. Ed. Josar, Local 1","city":"Paterna","zipCode":"46980"}},{"type":"Feature","id":"","geometry":{"type":"Point","coordinates":[-0.3751348,39.4741293]},"properties":{"marker-symbol":"bar","marker-color":"34495e","name":"Crapa Pelata","address":"DEL MAR, 3","city":"Valencia","zipCode":"46003"}},{"type":"Feature","id":"","geometry":{"type":"Point","coordinates":[-0.367774,39.4987976]},"properties":{"marker-symbol":"bar","marker-color":"34495e","name":"Crapa Pelata","address":"DUQUE DE MANDAS, 36 LOCAL 9","city":"Valencia","zipCode":"46019"}},{"type":"Feature","id":"","geometry":{"type":"Point","coordinates":[-0.4838063,39.4269263]},"properties":{"marker-symbol":"bar","marker-color":"34495e","name":"Crapa Pelata","address":"FERNANDO FURIO ROCA, 13","city":"Torrent","zipCode":"46900"}},{"type":"Feature","id":"","geometry":{"type":"Point","coordinates":[-0.4149856,39.5105098]},"properties":{"marker-symbol":"bar","marker-color":"34495e","name":"Crapa Pelata","address":"LAURA VOLPI, 10","city":"Burjassot","zipCode":"46100"}},{"type":"Feature","id":"","geometry":{"type":"Point","coordinates":[-0.2142148,39.6659723]},"properties":{"marker-symbol":"bar","marker-color":"34495e","name":"Crapa Pelata","address":"MENORCA, 1","city":"Sagunto/Sagunt","zipCode":"46520"}},{"type":"Feature","id":"","geometry":{"type":"Point","coordinates":[-0.3607137,39.4496491]},"properties":{"marker-symbol":"bar","marker-color":"34495e","name":"Bazaar","address":"C.C. EL SALER- AUTOVIA EL SALER, 16","city":"Valencia","zipCode":"46013"}},{"type":"Feature","id":"","geometry":{"type":"Point","coordinates":[-3.6973956,40.4212902]},"properties":{"marker-symbol":"bar","marker-color":"34495e","name":"Bazaar","address":"LIBERTAD, 21","city":"Madrid","zipCode":"28002"}},{"type":"Feature","id":"","geometry":{"type":"Point","coordinates":[0.1346074,40.0929466]},"properties":{"marker-symbol":"bar","marker-color":"34495e","name":"Bazaar","address":"URB. MARINA D'OR","city":"Oropesa del Mar/Orpesa","zipCode":"12594"}},{"type":"Feature","id":"","geometry":{"type":"Point","coordinates":[-3.6285445,40.4403417]},"properties":{"marker-symbol":"bar","marker-color":"34495e","name":"La Tagliatella","address":"Alcalá, 498","city":"Madrid","zipCode":"28027"}},{"type":"Feature","id":"","geometry":{"type":"Point","coordinates":[-5.9973109,37.3928326]},"properties":{"marker-symbol":"bar","marker-color":"34495e","name":"La Tagliatella","address":"ALFONSO XII, 13","city":"Sevilla","zipCode":"41001"}},{"type":"Feature","id":"","geometry":{"type":"Point","coordinates":[-8.4105456,43.3670428]},"properties":{"marker-symbol":"bar","marker-color":"34495e","name":"La Tagliatella","address":"ALFREDO VICENTI, 12-14","city":"Coruña (A)","zipCode":"15004"}},{"type":"Feature","id":"","geometry":{"type":"Point","coordinates":[-0.4933471,38.3416804]},"properties":{"marker-symbol":"bar","marker-color":"34495e","name":"La Tagliatella","address":"ARQUITECTO MORELL, 27","city":"Alicante/Alacant","zipCode":"03003"}},{"type":"Feature","id":"","geometry":{"type":"Point","coordinates":[2.1738494,41.3901725]},"properties":{"marker-symbol":"bar","marker-color":"34495e","name":"La Tagliatella","address":"AUSIAS MARCH, 7","city":"Barcelona","zipCode":"08010"}},{"type":"Feature","id":"","geometry":{"type":"Point","coordinates":[-3.7935755,40.4386436]},"properties":{"marker-symbol":"bar","marker-color":"34495e","name":"La Tagliatella","address":"Avda. COMUNIDAD DE MADRID, 3","city":"Pozuelo de Alarcón","zipCode":"28224"}},{"type":"Feature","id":"","geometry":{"type":"Point","coordinates":[-0.209193,39.6638007]},"properties":{"marker-symbol":"bar","marker-color":"34495e","name":"La Tagliatella","address":"Avda. DEL MEDITERRANEO, 145","city":"Sagunto/Sagunt","zipCode":"46520"}},{"type":"Feature","id":"","geometry":{"type":"Point","coordinates":[2.1516513,41.3943599]},"properties":{"marker-symbol":"bar","marker-color":"34495e","name":"La Tagliatella","address":"Avda. Diagonal, 431","city":"Barcelona","zipCode":"08036"}},{"type":"Feature","id":"","geometry":{"type":"Point","coordinates":[-3.672946,40.4238908]},"properties":{"marker-symbol":"bar","marker-color":"34495e","name":"La Tagliatella","address":"Avda. FELIPE II, 17","city":"Madrid","zipCode":"28009"}},{"type":"Feature","id":"","geometry":{"type":"Point","coordinates":[0.8967949,41.6313198]},"properties":{"marker-symbol":"bar","marker-color":"34495e","name":"La Tagliatella","address":"Avda. GENERALITAT, 22","city":"Mollerussa","zipCode":"25230"}},{"type":"Feature","id":"","geometry":{"type":"Point","coordinates":[-0.9106177,41.6414481]},"properties":{"marker-symbol":"bar","marker-color":"34495e","name":"La Tagliatella","address":"Avda. JUAN PABLO II, 22-32","city":"Zaragoza","zipCode":"50009"}},{"type":"Feature","id":"","geometry":{"type":"Point","coordinates":[1.177301,41.0724663]},"properties":{"marker-symbol":"bar","marker-color":"34495e","name":"La Tagliatella","address":"Avda. Pau Casals, 55, local 13","city":"Vila-seca","zipCode":"43481"}},{"type":"Feature","id":"","geometry":{"type":"Point","coordinates":[-2.4490891,42.4646522]},"properties":{"marker-symbol":"bar","marker-color":"34495e","name":"La Tagliatella","address":"Avda. PORTUGAL, 16","city":"Logroño","zipCode":"26001"}},{"type":"Feature","id":"","geometry":{"type":"Point","coordinates":[2.0077992,41.3143832]},"properties":{"marker-symbol":"bar","marker-color":"34495e","name":"La Tagliatella","address":"Avda. PRAT DE LA RIBA, S/N","city":"Viladecans","zipCode":"08840"}},{"type":"Feature","id":"","geometry":{"type":"Point","coordinates":[1.4345897,38.911971]},"properties":{"marker-symbol":"bar","marker-color":"34495e","name":"La Tagliatella","address":"Avda. STA. EULARIA DES RIU, 15","city":"Eivissa","zipCode":"07800"}},{"type":"Feature","id":"","geometry":{"type":"Point","coordinates":[-3.6956121,40.4202429]},"properties":{"marker-symbol":"bar","marker-color":"34495e","name":"La Tagliatella","address":"BARQUILLO, 8","city":"Madrid","zipCode":"28004"}},{"type":"Feature","id":"","geometry":{"type":"Point","coordinates":[-3.6355025,40.5318691]},"properties":{"marker-symbol":"bar","marker-color":"34495e","name":"La Tagliatella","address":"C.C. Heron Diversia. Avda. Bruselas","city":"Alcobendas","zipCode":"28108"}},{"type":"Feature","id":"","geometry":{"type":"Point","coordinates":[-3.8130616,40.4351952]},"properties":{"marker-symbol":"bar","marker-color":"34495e","name":"La Tagliatella","address":"C.C. KINEPOLIS, EDGAR NEVILLE, S/N","city":"Pozuelo de Alarcón","zipCode":"28223"}},{"type":"Feature","id":"","geometry":{"type":"Point","coordinates":[1.2217459,41.1236157]},"properties":{"marker-symbol":"bar","marker-color":"34495e","name":"La Tagliatella","address":"C.C. Les Gavarres, local C3","city":"Tarragona","zipCode":"43006"}},{"type":"Feature","id":"","geometry":{"type":"Point","coordinates":[-3.6952896,40.4563733]},"properties":{"marker-symbol":"bar","marker-color":"34495e","name":"La Tagliatella","address":"C.C. MODA SHOPPING.GENERAL PERON 40","city":"Madrid","zipCode":"28020"}},{"type":"Feature","id":"","geometry":{"type":"Point","coordinates":[-5.451617,36.1331868]},"properties":{"marker-symbol":"bar","marker-color":"34495e","name":"La Tagliatella","address":"C.C. PLAZA ANDALUCIA","city":"Algeciras","zipCode":"11201"}},{"type":"Feature","id":"","geometry":{"type":"Point","coordinates":[-6.00221,37.3908787]},"properties":{"marker-symbol":"bar","marker-color":"34495e","name":"La Tagliatella","address":"C.C. Plaza de Armas. Pza. Legión, s","city":"Sevilla","zipCode":"41001"}},{"type":"Feature","id":"","geometry":{"type":"Point","coordinates":[-3.582503,40.6381647]},"properties":{"marker-symbol":"bar","marker-color":"34495e","name":"La Tagliatella","address":"C.C. PLAZA NORTE, 2","city":"San Sebastián de los Reyes","zipCode":"28700"}},{"type":"Feature","id":"","geometry":{"type":"Point","coordinates":[-3.6648097,40.4879222]},"properties":{"marker-symbol":"bar","marker-color":"34495e","name":"La Tagliatella","address":"C.C. UGC CINECITE. AVD. MANOTERAS,","city":"Madrid","zipCode":"28050"}},{"type":"Feature","id":"","geometry":{"type":"Point","coordinates":[2.1069492,41.5483225]},"properties":{"marker-symbol":"bar","marker-color":"34495e","name":"La Tagliatella","address":"CALDERON, 2","city":"Sabadell","zipCode":"08201"}},{"type":"Feature","id":"","geometry":{"type":"Point","coordinates":[-3.6713831,40.480698]},"properties":{"marker-symbol":"bar","marker-color":"34495e","name":"La Tagliatella","address":"Caleruega, 50","city":"Madrid","zipCode":"28033"}},{"type":"Feature","id":"","geometry":{"type":"Point","coordinates":[-0.9850532,37.5997348]},"properties":{"marker-symbol":"bar","marker-color":"34495e","name":"La Tagliatella","address":"CAÑON, 4","city":"Cartagena","zipCode":"30202"}},{"type":"Feature","id":"","geometry":{"type":"Point","coordinates":[-3.6918689,40.4631825]},"properties":{"marker-symbol":"bar","marker-color":"34495e","name":"La Tagliatella","address":"CAPITAN HAYA, 53","city":"Madrid","zipCode":"28020"}},{"type":"Feature","id":"","geometry":{"type":"Point","coordinates":[-2.9319541,43.2600098]},"properties":{"marker-symbol":"bar","marker-color":"34495e","name":"La Tagliatella","address":"CARDENAL GARDOKI, 3. BAJOS","city":"Bilbao","zipCode":"48008"}},{"type":"Feature","id":"","geometry":{"type":"Point","coordinates":[-0.485076,38.3446679]},"properties":{"marker-symbol":"bar","marker-color":"34495e","name":"La Tagliatella","address":"CASTAÑOS, 7","city":"Alicante/Alacant","zipCode":"03001"}},{"type":"Feature","id":"","geometry":{"type":"Point","coordinates":[-0.8926167,41.6675023]},"properties":{"marker-symbol":"bar","marker-color":"34495e","name":"La Tagliatella","address":"CLARA CAMPOAMOR, 17-19","city":"Zaragoza","zipCode":"50010"}},{"type":"Feature","id":"","geometry":{"type":"Point","coordinates":[-5.6664835,40.9648121]},"properties":{"marker-symbol":"bar","marker-color":"34495e","name":"La Tagliatella","address":"COMPAÑIA, 48-50","city":"Salamanca","zipCode":"37002"}},{"type":"Feature","id":"","geometry":{"type":"Point","coordinates":[0.5446912,40.8158808]},"properties":{"marker-symbol":"bar","marker-color":"34495e","name":"La Tagliatella","address":"Cristobal Despuig, 34","city":"Tortosa","zipCode":"43500"}},{"type":"Feature","id":"","geometry":{"type":"Point","coordinates":[2.0696283,41.3565772]},"properties":{"marker-symbol":"bar","marker-color":"34495e","name":"La Tagliatella","address":"Ctra. ESPLUGUES, 2","city":"Cornellà de Llobregat","zipCode":"08940"}},{"type":"Feature","id":"","geometry":{"type":"Point","coordinates":[2.1245329,41.3896725]},"properties":{"marker-symbol":"bar","marker-color":"34495e","name":"La Tagliatella","address":"Doctor Ferrán, 25-27","city":"Barcelona","zipCode":"08034"}},{"type":"Feature","id":"","geometry":{"type":"Point","coordinates":[-0.8770496,41.6548637]},"properties":{"marker-symbol":"bar","marker-color":"34495e","name":"La Tagliatella","address":"DON JAIME I, 43","city":"Zaragoza","zipCode":"50003"}},{"type":"Feature","id":"","geometry":{"type":"Point","coordinates":[-5.9236818,37.4017117]},"properties":{"marker-symbol":"bar","marker-color":"34495e","name":"La Tagliatella","address":"Donantes de Sangre, 11 Y 12","city":"Sevilla","zipCode":"41020"}},{"type":"Feature","id":"","geometry":{"type":"Point","coordinates":[-4.4323576,36.7091025]},"properties":{"marker-symbol":"bar","marker-color":"34495e","name":"La Tagliatella","address":"Gabriel Celaya - Esquina Rachmanino","city":"Málaga","zipCode":"29002"}},{"type":"Feature","id":"","geometry":{"type":"Point","coordinates":[2.0054628,41.5622409]},"properties":{"marker-symbol":"bar","marker-color":"34495e","name":"La Tagliatella","address":"GALILEU, 199","city":"Terrassa","zipCode":"08224"}},{"type":"Feature","id":"","geometry":{"type":"Point","coordinates":[2.031834,41.4872741]},"properties":{"marker-symbol":"bar","marker-color":"34495e","name":"La Tagliatella","address":"GENERAL PRIM, 33-35","city":"Rubí","zipCode":"08191"}},{"type":"Feature","id":"","geometry":{"type":"Point","coordinates":[2.1369876,41.3662229]},"properties":{"marker-symbol":"bar","marker-color":"34495e","name":"La Tagliatella","address":"GRAN VIA DE LES CORTS CATALANES,149","city":"Barcelona","zipCode":"08014"}},{"type":"Feature","id":"","geometry":{"type":"Point","coordinates":[-0.4309503,38.3624324]},"properties":{"marker-symbol":"bar","marker-color":"34495e","name":"La Tagliatella","address":"Gta. Deportista Paqui Veza, 1","city":"Alicante/Alacant","zipCode":"03016"}},{"type":"Feature","id":"","geometry":{"type":"Point","coordinates":[-4.7799179,37.8838785]},"properties":{"marker-symbol":"bar","marker-color":"34495e","name":"La Tagliatella","address":"JESUS MARIA, 6","city":"Córdoba","zipCode":"14003"}},{"type":"Feature","id":"","geometry":{"type":"Point","coordinates":[2.1438468,41.3899738]},"properties":{"marker-symbol":"bar","marker-color":"34495e","name":"La Tagliatella","address":"JOSEP TARRADELLAS, 116","city":"Barcelona","zipCode":"08029"}},{"type":"Feature","id":"","geometry":{"type":"Point","coordinates":[-3.6786267,40.4327401]},"properties":{"marker-symbol":"bar","marker-color":"34495e","name":"La Tagliatella","address":"JUAN BRAVO, 35","city":"Madrid","zipCode":"28006"}},{"type":"Feature","id":"","geometry":{"type":"Point","coordinates":[-5.6535941,43.5403341]},"properties":{"marker-symbol":"bar","marker-color":"34495e","name":"La Tagliatella","address":"LA PLAYA, 26-28","city":"Gijón","zipCode":"33202"}},{"type":"Feature","id":"","geometry":{"type":"Point","coordinates":[-0.0328105,39.9830443]},"properties":{"marker-symbol":"bar","marker-color":"34495e","name":"La Tagliatella","address":"LAGASCA, 9","city":"Castellón de la Plana/Castelló de l","zipCode":"12003"}},{"type":"Feature","id":"","geometry":{"type":"Point","coordinates":[2.4628871,41.5474417]},"properties":{"marker-symbol":"bar","marker-color":"34495e","name":"La Tagliatella","address":"LEPANTO, 1 BIS","city":"Mataró","zipCode":"08301"}},{"type":"Feature","id":"","geometry":{"type":"Point","coordinates":[-2.9700567,43.2499702]},"properties":{"marker-symbol":"bar","marker-color":"34495e","name":"La Tagliatella","address":"LICENCIADO POZA, 55","city":"Bilbao","zipCode":"48013"}},{"type":"Feature","id":"","geometry":{"type":"Point","coordinates":[1.256736,41.1174214]},"properties":{"marker-symbol":"bar","marker-color":"34495e","name":"La Tagliatella","address":"MAJOR, 4","city":"Tarragona","zipCode":"43003"}},{"type":"Feature","id":"","geometry":{"type":"Point","coordinates":[2.163781,41.3947427]},"properties":{"marker-symbol":"bar","marker-color":"34495e","name":"La Tagliatella","address":"Mallorca, 266","city":"Barcelona","zipCode":"08008"}},{"type":"Feature","id":"","geometry":{"type":"Point","coordinates":[2.143572,41.3985824]},"properties":{"marker-symbol":"bar","marker-color":"34495e","name":"La Tagliatella","address":"MUNTANER, 359","city":"Barcelona","zipCode":"08006"}},{"type":"Feature","id":"","geometry":{"type":"Point","coordinates":[1.8252944,41.7253507]},"properties":{"marker-symbol":"bar","marker-color":"34495e","name":"La Tagliatella","address":"MURALLA DEL CARME, 12","city":"Manresa","zipCode":"08241"}},{"type":"Feature","id":"","geometry":{"type":"Point","coordinates":[1.1506792,41.0742763]},"properties":{"marker-symbol":"bar","marker-color":"34495e","name":"La Tagliatella","address":"MURILLO, 6-10","city":"Salou","zipCode":"43840"}},{"type":"Feature","id":"","geometry":{"type":"Point","coordinates":[2.1679514,41.3922897]},"properties":{"marker-symbol":"bar","marker-color":"34495e","name":"La Tagliatella","address":"PAU CLARIS, 118","city":"Barcelona","zipCode":"08010"}},{"type":"Feature","id":"","geometry":{"type":"Point","coordinates":[2.199338,41.4049977]},"properties":{"marker-symbol":"bar","marker-color":"34495e","name":"La Tagliatella","address":"PERE IV, 201","city":"Barcelona","zipCode":"08018"}},{"type":"Feature","id":"","geometry":{"type":"Point","coordinates":[1.7237486,41.2227877]},"properties":{"marker-symbol":"bar","marker-color":"34495e","name":"La Tagliatella","address":"PL.SOLER I CARBONELL,28","city":"Vilanova i la Geltrú","zipCode":"08800"}},{"type":"Feature","id":"","geometry":{"type":"Point","coordinates":[1.1093902,41.1547485]},"properties":{"marker-symbol":"bar","marker-color":"34495e","name":"La Tagliatella","address":"PLAÇA EL CASTELL, 1","city":"Reus","zipCode":"43201"}},{"type":"Feature","id":"","geometry":{"type":"Point","coordinates":[0.6186469,41.6188609]},"properties":{"marker-symbol":"bar","marker-color":"34495e","name":"La Tagliatella","address":"PLAÇA RICARD VINYES, 7","city":"Lleida","zipCode":"25006"}},{"type":"Feature","id":"","geometry":{"type":"Point","coordinates":[2.7515397,39.5065197]},"properties":{"marker-symbol":"bar","marker-color":"34495e","name":"La Tagliatella","address":"Pso. Nacional, 38","city":"Palma","zipCode":"07600"}},{"type":"Feature","id":"","geometry":{"type":"Point","coordinates":[-1.1305017,37.9867243]},"properties":{"marker-symbol":"bar","marker-color":"34495e","name":"La Tagliatella","address":"PZA. JULIAN ROMEA, 3","city":"Murcia","zipCode":"30001"}},{"type":"Feature","id":"","geometry":{"type":"Point","coordinates":[1.061382,41.067381]},"properties":{"marker-symbol":"bar","marker-color":"34495e","name":"La Tagliatella","address":"RAMBLA JAUME 1, 15","city":"Cambrils","zipCode":"43850"}},{"type":"Feature","id":"","geometry":{"type":"Point","coordinates":[2.1673388,41.3869716]},"properties":{"marker-symbol":"bar","marker-color":"34495e","name":"La Tagliatella","address":"RONDA DE LA UNIVERSITAT, 31","city":"Barcelona","zipCode":"08007"}},{"type":"Feature","id":"","geometry":{"type":"Point","coordinates":[-8.7172121,42.2380965]},"properties":{"marker-symbol":"bar","marker-color":"34495e","name":"La Tagliatella","address":"ROSALIA DE CASTRO, 25","city":"Vigo","zipCode":"36201"}},{"type":"Feature","id":"","geometry":{"type":"Point","coordinates":[-1.9841376,43.3167184]},"properties":{"marker-symbol":"bar","marker-color":"34495e","name":"La Tagliatella","address":"SAN MARTIN, 29","city":"Donostia-San Sebastián","zipCode":"20005"}},{"type":"Feature","id":"","geometry":{"type":"Point","coordinates":[-2.6795065,42.8467068]},"properties":{"marker-symbol":"bar","marker-color":"34495e","name":"La Tagliatella","address":"SANCHO EL SABIO, 1","city":"Vitoria-Gasteiz","zipCode":"01008"}},{"type":"Feature","id":"","geometry":{"type":"Point","coordinates":[2.1327953,41.3750118]},"properties":{"marker-symbol":"bar","marker-color":"34495e","name":"La Tagliatella","address":"SANT. MEDIR, 8","city":"Barcelona","zipCode":"08028"}},{"type":"Feature","id":"","geometry":{"type":"Point","coordinates":[2.156808,41.4242356]},"properties":{"marker-symbol":"bar","marker-color":"34495e","name":"La Tagliatella","address":"SANTA TERESA, 11","city":"Cerdanyola del Vallès","zipCode":"08290"}},{"type":"Feature","id":"","geometry":{"type":"Point","coordinates":[-7.8631775,42.3379323]},"properties":{"marker-symbol":"bar","marker-color":"34495e","name":"La Tagliatella","address":"SANTO DOMINGO, 13","city":"Ourense","zipCode":"32003"}},{"type":"Feature","id":"","geometry":{"type":"Point","coordinates":[2.2479122,41.4511865]},"properties":{"marker-symbol":"bar","marker-color":"34495e","name":"La Tagliatella","address":"TEMPLE, 9","city":"Badalona","zipCode":"08911"}},{"type":"Feature","id":"","geometry":{"type":"Point","coordinates":[2.1515805,41.3974178]},"properties":{"marker-symbol":"bar","marker-color":"34495e","name":"La Tagliatella","address":"TRAVESSERA DE GRACIA, 87","city":"Barcelona","zipCode":"08021"}},{"type":"Feature","id":"","geometry":{"type":"Point","coordinates":[2.8215013,41.9754216]},"properties":{"marker-symbol":"bar","marker-color":"34495e","name":"La Tagliatella","address":"TRAVESSERA DE LA CREU, 26","city":"Girona","zipCode":"17002"}},{"type":"Feature","id":"","geometry":{"type":"Point","coordinates":[2.208666,41.4524216]},"properties":{"marker-symbol":"bar","marker-color":"34495e","name":"La Tagliatella","address":"VISTALEGRE, 4","city":"Santa Coloma de Gramenet","zipCode":"08921"}},{"type":"Feature","id":"","geometry":{"type":"Point","coordinates":[-0.3784771,39.4678913]},"properties":{"marker-symbol":"bar","marker-color":"34495e","name":"La Tagliatella","address":"XATIVA, 12","city":"Valencia","zipCode":"46007"}},{"type":"Feature","id":"","geometry":{"type":"Point","coordinates":[-3.4731298,40.4571648]},"properties":{"marker-symbol":"bar","marker-color":"34495e","name":"La Bambola Restaurantes","address":"C.C. EL CIRCULO.AV.CONSTITUCION, 90","city":"Torrejón de Ardoz","zipCode":"28850"}},{"type":"Feature","id":"","geometry":{"type":"Point","coordinates":[-4.8416936,37.932051]},"properties":{"marker-symbol":"bar","marker-color":"34495e","name":"La Bambola Restaurantes","address":"C.C. EL TABLERO","city":"Córdoba","zipCode":"14012"}},{"type":"Feature","id":"","geometry":{"type":"Point","coordinates":[-3.1592219,40.6258688]},"properties":{"marker-symbol":"bar","marker-color":"34495e","name":"La Bambola Restaurantes","address":"C.C. FERIAL PLAZA","city":"Guadalajara","zipCode":"19002"}},{"type":"Feature","id":"","geometry":{"type":"Point","coordinates":[-3.5640469,40.4458335]},"properties":{"marker-symbol":"bar","marker-color":"34495e","name":"La Bambola Restaurantes","address":"C.C. ZOCOSLADA. AVDA. ESPAÑA, 23","city":"Coslada","zipCode":"28820"}},{"type":"Feature","id":"","geometry":{"type":"Point","coordinates":[-3.7401391,40.3864152]},"properties":{"marker-symbol":"bar","marker-color":"34495e","name":"La Bambola Restaurantes","address":"CASTROGERIZ, 18","city":"Madrid","zipCode":"28025"}},{"type":"Feature","id":"","geometry":{"type":"Point","coordinates":[-3.7284474,40.3061663]},"properties":{"marker-symbol":"bar","marker-color":"34495e","name":"La Bambola Restaurantes","address":"HOSPITAL DE SAN JOSE, 8","city":"Getafe","zipCode":"28901"}},{"type":"Feature","id":"","geometry":{"type":"Point","coordinates":[-3.6658335,40.3922351]},"properties":{"marker-symbol":"bar","marker-color":"34495e","name":"La Bambola Restaurantes","address":"MARTINEZ DE LA RIVA, 36","city":"Madrid","zipCode":"28053"}},{"type":"Feature","id":"","geometry":{"type":"Point","coordinates":[0.06275289999996403,38.8276916]},"properties":{"marker-symbol":"bar","marker-color":"34495e","name":"Sorsi e Morsi","address":"Doctor Serrano, 11","city":"Valencia","zipCode":"46006"}},{"type":"Feature","id":"","geometry":{"type":"Point","coordinates":[-0.3496316000000661,39.4573802]},"properties":{"marker-symbol":"bar","marker-color":"34495e","name":"Sorsi e Morsi","address":"Pso. Alameda, 44","city":"Valencia","zipCode":"46023"}},{"type":"Feature","id":"","geometry":{"type":"Point","coordinates":[-8.7164055,42.2391345]},"properties":{"marker-symbol":"bar","marker-color":"34495e","name":"El Rancho","address":"AREAL, 18","city":"Vigo","zipCode":"36201"}},{"type":"Feature","id":"","geometry":{"type":"Point","coordinates":[-0.5649651,38.1922938]},"properties":{"marker-symbol":"bar","marker-color":"34495e","name":"El Rancho","address":"Avda. BLASCO IBAÑEZ, 39","city":"Santa Pola","zipCode":"03130"}},{"type":"Feature","id":"","geometry":{"type":"Point","coordinates":[-0.4917121,38.339153]},"properties":{"marker-symbol":"bar","marker-color":"34495e","name":"El Rancho","address":"Avda. EUSEBIO SEMPERE, 10","city":"Alicante/Alacant","zipCode":"03003"}},{"type":"Feature","id":"","geometry":{"type":"Point","coordinates":[-0.358556,39.4808107]},"properties":{"marker-symbol":"bar","marker-color":"34495e","name":"El Rancho","address":"Avda. PRIMADO REIG, 177","city":"Valencia","zipCode":"46020"}},{"type":"Feature","id":"","geometry":{"type":"Point","coordinates":[2.1016969,41.5551385]},"properties":{"marker-symbol":"bar","marker-color":"34495e","name":"El Rancho","address":"MAJOR, 19","city":"Sabadell","zipCode":"08208"}},{"type":"Feature","id":"","geometry":{"type":"Point","coordinates":[2.5552672,39.6135765]},"properties":{"marker-symbol":"bar","marker-color":"34495e","name":"El Rancho","address":"Plaza DEL PUENTE, S/N","city":"Palma","zipCode":"07014"}},{"type":"Feature","id":"","geometry":{"type":"Point","coordinates":[-3.7167736,40.4012238]},"properties":{"marker-symbol":"bar","marker-color":"34495e","name":"El Rancho","address":"Pso. DE LOS MELANCOLICOS, 77","city":"Madrid","zipCode":"28005"}},{"type":"Feature","id":"","geometry":{"type":"Point","coordinates":[-0.7033385,37.6337071]},"properties":{"marker-symbol":"bar","marker-color":"34495e","name":"El Rancho","address":"SUBIDA AL FARO, 17","city":"Cartagena","zipCode":"30200"}},{"type":"Feature","id":"","geometry":{"type":"Point","coordinates":[-0.9926218,37.6159247]},"properties":{"marker-symbol":"bar","marker-color":"34495e","name":"El Rancho","address":"VALLE INCLAN, 5","city":"Cartagena","zipCode":"30204"}},{"type":"Feature","id":"","geometry":{"type":"Point","coordinates":[2.0074782,41.5637396]},"properties":{"marker-symbol":"bar","marker-color":"34495e","name":"El Rancho","address":"VOLTA, 8","city":"Terrassa","zipCode":"08224"}},{"type":"Feature","id":"","geometry":{"type":"Point","coordinates":[-6.2216678,36.4744472]},"properties":{"marker-symbol":"bar","marker-color":"34495e","name":"Muerde la Pasta","address":"C.C. BAHIA SUR. CAÑO HERRERA, S/N","city":"San Fernando","zipCode":"11100"}},{"type":"Feature","id":"","geometry":{"type":"Point","coordinates":[-0.4078058,39.4909035]},"properties":{"marker-symbol":"bar","marker-color":"34495e","name":"Muerde la Pasta","address":"C.C. ESPAI CAMPANAR,LOCAL PA-4","city":"Valencia","zipCode":"46015"}},{"type":"Feature","id":"","geometry":{"type":"Point","coordinates":[-0.0093266,39.970967]},"properties":{"marker-symbol":"bar","marker-color":"34495e","name":"Muerde la Pasta","address":"C.C. Puerto Azahar, Pº Buenavista,","city":"Castellón de la Plana/Castelló de l","zipCode":"12100"}},{"type":"Feature","id":"","geometry":{"type":"Point","coordinates":[0.2690466,40.2344805]},"properties":{"marker-symbol":"bar","marker-color":"34495e","name":"Muerde la Pasta","address":"HOTEL ROMANA BEACH,PLAYA ROMANA,S/N","city":"Alcalà de Xivert","zipCode":"12579"}},{"type":"Feature","id":"","geometry":{"type":"Point","coordinates":[-0.0291533,39.9876472]},"properties":{"marker-symbol":"bar","marker-color":"34495e","name":"Muerde la Pasta","address":"MAESTRO RIPOLLES,10 - BAJO IZDA.","city":"Castellón de la Plana/Castelló de l","zipCode":"12003"}},{"type":"Feature","id":"","geometry":{"type":"Point","coordinates":[-3.6673942,40.5614212]},"properties":{"marker-symbol":"bar","marker-color":"34495e","name":"La Alpargatería","address":"C.C. Diversia. Bruselas, 21","city":"Alcobendas","zipCode":"28100"}},{"type":"Feature","id":"","geometry":{"type":"Point","coordinates":[-3.8808034,40.4731888]},"properties":{"marker-symbol":"bar","marker-color":"34495e","name":"La Alpargatería","address":"C.C. Equinoccio. Las Fresas, s/n","city":"Majadahonda","zipCode":"28220"}},{"type":"Feature","id":"","geometry":{"type":"Point","coordinates":[-3.7003454,40.4166909]},"properties":{"marker-symbol":"bar","marker-color":"34495e","name":"La Alpargatería","address":"C.C. Heron City, local 6. Juan Ramó","city":"Rozas de Madrid (Las)","zipCode":"28230"}},{"type":"Feature","id":"","geometry":{"type":"Point","coordinates":[-3.6602747,40.5523186]},"properties":{"marker-symbol":"bar","marker-color":"34495e","name":"La Alpargatería","address":"C.C. La Moraleja, local L-7. Avda.","city":"Alcobendas","zipCode":"28100"}},{"type":"Feature","id":"","geometry":{"type":"Point","coordinates":[-3.7003632,40.4765501]},"properties":{"marker-symbol":"bar","marker-color":"34495e","name":"La Alpargatería","address":"C.C. La Vaguada, LT29. Monforte de","city":"Madrid","zipCode":"28029"}},{"type":"Feature","id":"","geometry":{"type":"Point","coordinates":[-3.7327191,40.3400009]},"properties":{"marker-symbol":"bar","marker-color":"34495e","name":"La Alpargatería","address":"C.C. Parquesur, locales 13-14-15. A","city":"Leganés","zipCode":"28916"}},{"type":"Feature","id":"","geometry":{"type":"Point","coordinates":[-3.582503,40.6381647]},"properties":{"marker-symbol":"bar","marker-color":"34495e","name":"La Alpargatería","address":"C.C. PLAZA NORTE 2","city":"San Sebastián de los Reyes","zipCode":"28700"}},{"type":"Feature","id":"","geometry":{"type":"Point","coordinates":[-3.6706034,40.4824389]},"properties":{"marker-symbol":"bar","marker-color":"34495e","name":"La Alpargatería","address":"CALERUEGA, 67","city":"Madrid","zipCode":"28010"}},{"type":"Feature","id":"","geometry":{"type":"Point","coordinates":[-3.6268464,40.5220713]},"properties":{"marker-symbol":"bar","marker-color":"34495e","name":"La Alpargatería","address":"Cno. del Cura, 233 (Centro Deportiv","city":"Alcobendas","zipCode":"28109"}},{"type":"Feature","id":"","geometry":{"type":"Point","coordinates":[-3.6799127,40.4349092]},"properties":{"marker-symbol":"bar","marker-color":"34495e","name":"La Alpargatería","address":"DIEGO DE LEON, 39","city":"Madrid","zipCode":"28001"}},{"type":"Feature","id":"","geometry":{"type":"Point","coordinates":[-3.6752619,40.420267]},"properties":{"marker-symbol":"bar","marker-color":"34495e","name":"La Alpargatería","address":"Doctor Castelo, 30","city":"Madrid","zipCode":"28009"}},{"type":"Feature","id":"","geometry":{"type":"Point","coordinates":[-3.7022181,40.4283904]},"properties":{"marker-symbol":"bar","marker-color":"34495e","name":"La Alpargatería","address":"FUENCARRAL, 103","city":"Madrid","zipCode":"28001"}},{"type":"Feature","id":"","geometry":{"type":"Point","coordinates":[-3.6883591,40.4266383]},"properties":{"marker-symbol":"bar","marker-color":"34495e","name":"La Alpargatería","address":"Hermosilla, 7","city":"Madrid","zipCode":"28001"}},{"type":"Feature","id":"","geometry":{"type":"Point","coordinates":[-3.6775696,40.4476248]},"properties":{"marker-symbol":"bar","marker-color":"34495e","name":"La Alpargatería","address":"SUERO DE QUIÑONES, 42","city":"Madrid","zipCode":"28002"}},{"type":"Feature","id":"","geometry":{"type":"Point","coordinates":[-3.6471162,40.4604421]},"properties":{"marker-symbol":"bar","marker-color":"34495e","name":"La Alpargatería","address":"TORRECILLA PUERTO-ASURA (A. SORIA)","city":"Madrid","zipCode":"28043"}},{"type":"Feature","id":"","geometry":{"type":"Point","coordinates":[-0.1304873,38.5023296]},"properties":{"marker-symbol":"bar","marker-color":"34495e","name":"Tony Roma's","address":"Avda. MEDITERRANEO, 28- LOCAL 1","city":"Benidorm","zipCode":"03500"}},{"type":"Feature","id":"","geometry":{"type":"Point","coordinates":[-16.2548558,28.46981]},"properties":{"marker-symbol":"bar","marker-color":"34495e","name":"Tony Roma's","address":"Avda. RAFAEL PUIG, 23 (PLAYA AMERIC","city":"Arona","zipCode":"38980"}},{"type":"Feature","id":"","geometry":{"type":"Point","coordinates":[-0.4432995,39.502919]},"properties":{"marker-symbol":"bar","marker-color":"34495e","name":"Tony Roma's","address":"C.C. BONAIRE CTRA. A-3 KM.345","city":"Aldaia","zipCode":"46960"}},{"type":"Feature","id":"","geometry":{"type":"Point","coordinates":[-0.4405986,39.5020648]},"properties":{"marker-symbol":"bar","marker-color":"34495e","name":"Tony Roma's","address":"C.C. HERON CITY CTRA. ADEMUZ KM.9","city":"Paterna","zipCode":"46980"}},{"type":"Feature","id":"","geometry":{"type":"Point","coordinates":[-3.9164585,39.8639609]},"properties":{"marker-symbol":"bar","marker-color":"34495e","name":"Tony Roma's","address":"C.C. LUZ DEL TAJO","city":"Toledo","zipCode":"45007"}},{"type":"Feature","id":"","geometry":{"type":"Point","coordinates":[-16.2595694,28.4578221]},"properties":{"marker-symbol":"bar","marker-color":"34495e","name":"Tony Roma's","address":"C.C. MERIDIANO, LOCAL 38","city":"Santa Cruz de Tenerife","zipCode":"38005"}},{"type":"Feature","id":"","geometry":{"type":"Point","coordinates":[-3.6571785,40.5193348]},"properties":{"marker-symbol":"bar","marker-color":"34495e","name":"Tony Roma's","address":"CC.LA MORALEJA GREEN (AV.EUROPA,10)","city":"Alcobendas","zipCode":"28100"}},{"type":"Feature","id":"","geometry":{"type":"Point","coordinates":[-3.7105118,40.4609722]},"properties":{"marker-symbol":"bar","marker-color":"34495e","name":"Tony Roma's","address":"FEDERICO RUBIO GALI,78 (NUMANCIA,2)","city":"Madrid","zipCode":"28039"}},{"type":"Feature","id":"","geometry":{"type":"Point","coordinates":[-16.7319412,28.1080264]},"properties":{"marker-symbol":"bar","marker-color":"34495e","name":"Tony Roma's","address":"PARIS, S/N HOTEL JARDINES NIVARIA","city":"Adeje","zipCode":"38679"}},{"type":"Feature","id":"","geometry":{"type":"Point","coordinates":[-0.3662529,39.4685132]},"properties":{"marker-symbol":"bar","marker-color":"34495e","name":"Tony Roma's","address":"PZA. CANOVAS DEL CASTILLO, 2","city":"Valencia","zipCode":"46005"}},{"type":"Feature","id":"","geometry":{"type":"Point","coordinates":[-3.3642812,40.483822]},"properties":{"marker-symbol":"bar","marker-color":"34495e","name":"Tony Roma's","address":"TINTE, 1","city":"Alcalá de Henares","zipCode":"28801"}},{"type":"Feature","id":"","geometry":{"type":"Point","coordinates":[-5.5738686,42.5959472]},"properties":{"marker-symbol":"bar","marker-color":"34495e","name":"Sports Bar","address":"EL FUERO, 7","city":"León","zipCode":"24001"}},{"type":"Feature","id":"","geometry":{"type":"Point","coordinates":[1.7009682,41.3466316]},"properties":{"marker-symbol":"bar","marker-color":"34495e","name":"Sports Bar","address":"MURALLA DE SANT MAGI, 2","city":"Vilafranca del Penedès","zipCode":"08720"}},{"type":"Feature","id":"","geometry":{"type":"Point","coordinates":[1.8065113,41.2346131]},"properties":{"marker-symbol":"bar","marker-color":"34495e","name":"Sports Bar","address":"Pso. DE LA RIBERA, 48","city":"Sitges","zipCode":"08870"}},{"type":"Feature","id":"","geometry":{"type":"Point","coordinates":[2.1757278,41.3819518]},"properties":{"marker-symbol":"bar","marker-color":"34495e","name":"Sports Bar","address":"Rambla Caputxins, 31 local","city":"Barcelona","zipCode":"08002"}},{"type":"Feature","id":"","geometry":{"type":"Point","coordinates":[-3.5711466,40.4678932]},"properties":{"marker-symbol":"bar","marker-color":"34495e","name":"Sports Bar","address":"RECINTO FERIAL JUAN CARLOS I. IFEMA","city":"Madrid","zipCode":"28042"}},{"type":"Feature","id":"","geometry":{"type":"Point","coordinates":[-3.7003454,40.4166909]},"properties":{"marker-symbol":"bar","marker-color":"34495e","name":"SushiOlé","address":"ATENAS, 2,CENTRO PLAZA URBIS","city":"Pozuelo de Alarcón","zipCode":"28000"}},{"type":"Feature","id":"","geometry":{"type":"Point","coordinates":[-3.6758125,40.4356462]},"properties":{"marker-symbol":"bar","marker-color":"34495e","name":"SushiOlé","address":"FRANCISCO SILVELA, 71","city":"Madrid","zipCode":"28000"}},{"type":"Feature","id":"","geometry":{"type":"Point","coordinates":[-3.7003454,40.4166909]},"properties":{"marker-symbol":"bar","marker-color":"34495e","name":"SushiOlé","address":"VALGAME DIOS (CHUECA)","city":"Madrid","zipCode":"28000"}},{"type":"Feature","id":"","geometry":{"type":"Point","coordinates":[-3.708692,40.4172715]},"properties":{"marker-symbol":"bar","marker-color":"34495e","name":"Il Profumo","address":"FUENTES, 9","city":"Madrid","zipCode":"28013"}},{"type":"Feature","id":"","geometry":{"type":"Point","coordinates":[-3.6454206,40.4561481]},"properties":{"marker-symbol":"bar","marker-color":"34495e","name":"Il Profumo","address":"SILVANO, 47","city":"Madrid","zipCode":"28043"}},{"type":"Feature","id":"","geometry":{"type":"Point","coordinates":[-3.6926056,40.4593094]},"properties":{"marker-symbol":"bar","marker-color":"34495e","name":"Da Nicola Piccolo","address":"SOR ANGELA DE LA CRUZ, 8","city":"Madrid","zipCode":"28020"}},{"type":"Feature","id":"","geometry":{"type":"Point","coordinates":[-3.7089314,40.4235192]},"properties":{"marker-symbol":"bar","marker-color":"34495e","name":"Da Nicola Piccolo","address":"Plaza MOSTENSES, 11","city":"Madrid","zipCode":"28015"}},{"type":"Feature","id":"","geometry":{"type":"Point","coordinates":[-3.6955026,40.4476014]},"properties":{"marker-symbol":"bar","marker-color":"34495e","name":"Da Nicola Piccolo","address":"ORENSE, 4","city":"Madrid","zipCode":"28020"}},{"type":"Feature","id":"","geometry":{"type":"Point","coordinates":[-3.6955026,40.4476014]},"properties":{"marker-symbol":"bar","marker-color":"34495e","name":"Da Nicola Piccolo","address":"ORENSE, 4","city":"Madrid","zipCode":"28020"}},{"type":"Feature","id":"","geometry":{"type":"Point","coordinates":[-3.7910145,37.7819764]},"properties":{"marker-symbol":"bar","marker-color":"34495e","name":"O Mamma Mia","address":"Avda. CASTILLA LA MANCHA, 1-BAJO","city":"Jaén","zipCode":"23009"}},{"type":"Feature","id":"","geometry":{"type":"Point","coordinates":[-6.2926569,36.5296879]},"properties":{"marker-symbol":"bar","marker-color":"34495e","name":"O Mamma Mia","address":"Avda. DE LA CRUZ ROJA, EDIF. DUQUE,","city":"Jerez de la Frontera","zipCode":"11330"}},{"type":"Feature","id":"","geometry":{"type":"Point","coordinates":[-3.6043705,37.185217]},"properties":{"marker-symbol":"bar","marker-color":"34495e","name":"O Mamma Mia","address":"Avda. DE MADRID, 5","city":"Granada","zipCode":"18012"}},{"type":"Feature","id":"","geometry":{"type":"Point","coordinates":[-2.4471764,36.8444722]},"properties":{"marker-symbol":"bar","marker-color":"34495e","name":"O Mamma Mia","address":"Avda. DEL MEDITERRANEO, 275","city":"Almería","zipCode":"04006"}},{"type":"Feature","id":"","geometry":{"type":"Point","coordinates":[-4.8062218,37.8859817]},"properties":{"marker-symbol":"bar","marker-color":"34495e","name":"O Mamma Mia","address":"Avda. ISLA DE FUERTEVENTURA, 62","city":"Córdoba","zipCode":"14011"}},{"type":"Feature","id":"","geometry":{"type":"Point","coordinates":[-4.405968,36.7213206]},"properties":{"marker-symbol":"bar","marker-color":"34495e","name":"O Mamma Mia","address":"Avda. PRIES, 13","city":"Málaga","zipCode":"29016"}},{"type":"Feature","id":"","geometry":{"type":"Point","coordinates":[-6.0001845,37.3836972]},"properties":{"marker-symbol":"bar","marker-color":"34495e","name":"O Mamma Mia","address":"BETIS, 33","city":"Sevilla","zipCode":"41010"}},{"type":"Feature","id":"","geometry":{"type":"Point","coordinates":[-3.3717563,38.0169391]},"properties":{"marker-symbol":"bar","marker-color":"34495e","name":"O Mamma Mia","address":"BETULA, 7","city":"Úbeda","zipCode":"23400"}},{"type":"Feature","id":"","geometry":{"type":"Point","coordinates":[-4.5461963,36.6718235]},"properties":{"marker-symbol":"bar","marker-color":"34495e","name":"O Mamma Mia","address":"C.C. CAPELLANIA, 17-18","city":"Alhaurín de la Torre","zipCode":"29130"}},{"type":"Feature","id":"","geometry":{"type":"Point","coordinates":[-6.0891032,36.3896325]},"properties":{"marker-symbol":"bar","marker-color":"34495e","name":"O Mamma Mia","address":"C.C. MIRAMAR, C/ DEL OSTION,S/N","city":"Chiclana de la Frontera","zipCode":"11130"}},{"type":"Feature","id":"","geometry":{"type":"Point","coordinates":[-4.0413515,38.0368871]},"properties":{"marker-symbol":"bar","marker-color":"34495e","name":"O Mamma Mia","address":"Carmen de Brugos, 1","city":"Andújar","zipCode":"23740"}},{"type":"Feature","id":"","geometry":{"type":"Point","coordinates":[-3.6535521,40.4446377]},"properties":{"marker-symbol":"bar","marker-color":"34495e","name":"O Mamma Mia","address":"CONDESA DE VENADITO, 5","city":"Madrid","zipCode":"28027"}},{"type":"Feature","id":"","geometry":{"type":"Point","coordinates":[-4.6216974,36.5384865]},"properties":{"marker-symbol":"bar","marker-color":"34495e","name":"O Mamma Mia","address":"CRUZ, 23","city":"Fuengirola","zipCode":"29640"}},{"type":"Feature","id":"","geometry":{"type":"Point","coordinates":[-5.8446152,36.1356677]},"properties":{"marker-symbol":"bar","marker-color":"34495e","name":"O Mamma Mia","address":"Ctra. ATLANTERA-ZAHARA","city":"Barbate","zipCode":"11393"}},{"type":"Feature","id":"","geometry":{"type":"Point","coordinates":[-4.4627037,36.7168628]},"properties":{"marker-symbol":"bar","marker-color":"34495e","name":"O Mamma Mia","address":"FRANK KAFKA, 8","city":"Málaga","zipCode":"29010"}},{"type":"Feature","id":"","geometry":{"type":"Point","coordinates":[-3.642048,38.1125918]},"properties":{"marker-symbol":"bar","marker-color":"34495e","name":"O Mamma Mia","address":"JULIO BURELL, ESQ. CERVANTES","city":"Linares","zipCode":"23700"}},{"type":"Feature","id":"","geometry":{"type":"Point","coordinates":[-6.9511017,37.2618577]},"properties":{"marker-symbol":"bar","marker-color":"34495e","name":"O Mamma Mia","address":"Pº BUENOS AIRES, 21","city":"Huelva","zipCode":"21000"}},{"type":"Feature","id":"","geometry":{"type":"Point","coordinates":[-2.9374691,35.2813625]},"properties":{"marker-symbol":"bar","marker-color":"34495e","name":"O Mamma Mia","address":"Pº MARITIMO, 20","city":"Melilla","zipCode":"52002"}},{"type":"Feature","id":"","geometry":{"type":"Point","coordinates":[-6.2754375,36.504623]},"properties":{"marker-symbol":"bar","marker-color":"34495e","name":"O Mamma Mia","address":"PSO. MARITIMO,3-EDIF.REINA VICTORIA","city":"Cádiz","zipCode":"11010"}},{"type":"Feature","id":"","geometry":{"type":"Point","coordinates":[-1.1226404,37.9795333]},"properties":{"marker-symbol":"bar","marker-color":"34495e","name":"O Mamma Mia","address":"PZA. SAN JUAN, 6","city":"Murcia","zipCode":"30003"}},{"type":"Feature","id":"","geometry":{"type":"Point","coordinates":[-4.7817235,37.8891125]},"properties":{"marker-symbol":"bar","marker-color":"34495e","name":"O Mamma Mia","address":"REYES CATOLICOS, 5","city":"Córdoba","zipCode":"14001"}},{"type":"Feature","id":"","geometry":{"type":"Point","coordinates":[-4.4182055,36.7239522]},"properties":{"marker-symbol":"bar","marker-color":"34495e","name":"O Mamma Mia","address":"SAN JUAN LETRAN, 7","city":"Málaga","zipCode":"29012"}},{"type":"Feature","id":"","geometry":{"type":"Point","coordinates":[-3.6865164,40.4370553]},"properties":{"marker-symbol":"bar","marker-color":"34495e","name":"O Mamma Mia","address":"SERRANO, 91","city":"Madrid","zipCode":"28006"}},{"type":"Feature","id":"","geometry":{"type":"Point","coordinates":[-2.461793400000033,36.8391375]},"properties":{"marker-symbol":"bar","marker-color":"34495e","name":"La Mafia se Sienta a la Mesa","address":"C/García Alix, 14","city":"Almería","zipCode":"04001"}},{"type":"Feature","id":"","geometry":{"type":"Point","coordinates":[-5.4515724999999975,36.155536]},"properties":{"marker-symbol":"bar","marker-color":"34495e","name":"La Mafia se Sienta a la Mesa","address":"Avd. Capitán Ontañón, s/n (Edif. Plaza Mayor, local 3)","city":"Algeciras","zipCode":"11205"}},{"type":"Feature","id":"","geometry":{"type":"Point","coordinates":[-2.942722799999956,43.2624006]},"properties":{"marker-symbol":"bar","marker-color":"34495e","name":"La Mafia se Sienta a la Mesa","address":"C/ Licenciado Poza, 57","city":"Bilbao","zipCode":"48013"}},{"type":"Feature","id":"","geometry":{"type":"Point","coordinates":[-3.605318699999998,37.1769946]},"properties":{"marker-symbol":"bar","marker-color":"34495e","name":"La Mafia se Sienta a la Mesa","address":"C/ Trajano, 4 ( Pza. Mercedes Domenech )","city":"Granada","zipCode":"18002"}},{"type":"Feature","id":"","geometry":{"type":"Point","coordinates":[-6.140769399999954,36.6844344]},"properties":{"marker-symbol":"bar","marker-color":"34495e","name":"La Mafia se Sienta a la Mesa","address":"C/ Beato Juan Grande, 15 (Pza. del Mamelón)","city":"Jerez","zipCode":"11403"}},{"type":"Feature","id":"","geometry":{"type":"Point","coordinates":[-1.6389006,42.813958]},"properties":{"marker-symbol":"bar","marker-color":"34495e","name":"La Mafia se Sienta a la Mesa","address":"AMAYA, 4","city":"Pamplona/Iruña","zipCode":"31002"}},{"type":"Feature","id":"","geometry":{"type":"Point","coordinates":[-3.6266987,40.5339856]},"properties":{"marker-symbol":"bar","marker-color":"34495e","name":"La Mafia se Sienta a la Mesa","address":"ANABEL SEGURA, 11","city":"Alcobendas","zipCode":"28108"}},{"type":"Feature","id":"","geometry":{"type":"Point","coordinates":[1.9794,41.2801978]},"properties":{"marker-symbol":"bar","marker-color":"34495e","name":"La Mafia se Sienta a la Mesa","address":"Avda. CONSTITUCION, 112","city":"Castelldefels","zipCode":"08860"}},{"type":"Feature","id":"","geometry":{"type":"Point","coordinates":[-0.3513398,39.4603802]},"properties":{"marker-symbol":"bar","marker-color":"34495e","name":"La Mafia se Sienta a la Mesa","address":"Avda. FRANCIA, 17","city":"Valencia","zipCode":"46023"}},{"type":"Feature","id":"","geometry":{"type":"Point","coordinates":[-0.17931,38.9745855]},"properties":{"marker-symbol":"bar","marker-color":"34495e","name":"La Mafia se Sienta a la Mesa","address":"BENISSUAI, 19","city":"Gandia","zipCode":"46701"}},{"type":"Feature","id":"","geometry":{"type":"Point","coordinates":[-0.436344,39.1503956]},"properties":{"marker-symbol":"bar","marker-color":"34495e","name":"La Mafia se Sienta a la Mesa","address":"BENITO PEREZ GALDOS, 1","city":"Alzira","zipCode":"46600"}},{"type":"Feature","id":"","geometry":{"type":"Point","coordinates":[-3.7660432,40.6589526]},"properties":{"marker-symbol":"bar","marker-color":"34495e","name":"La Mafia se Sienta a la Mesa","address":"C.C. El Ventanal de la Sierra, loca","city":"Colmenar Viejo","zipCode":"28770"}},{"type":"Feature","id":"","geometry":{"type":"Point","coordinates":[-0.0359147,39.9877713]},"properties":{"marker-symbol":"bar","marker-color":"34495e","name":"La Mafia se Sienta a la Mesa","address":"CABALLEROS, 55","city":"Castellón de la Plana/Castelló de l","zipCode":"12001"}},{"type":"Feature","id":"","geometry":{"type":"Point","coordinates":[-3.6698516,40.442555]},"properties":{"marker-symbol":"bar","marker-color":"34495e","name":"La Mafia se Sienta a la Mesa","address":"CLARA DEL REY, 24","city":"Madrid","zipCode":"28002"}},{"type":"Feature","id":"","geometry":{"type":"Point","coordinates":[-0.87876,41.6447514]},"properties":{"marker-symbol":"bar","marker-color":"34495e","name":"La Mafia se Sienta a la Mesa","address":"FRANCISCO DE VITORIA, 31","city":"Zaragoza","zipCode":"50008"}},{"type":"Feature","id":"","geometry":{"type":"Point","coordinates":[-2.4475634,42.4622141]},"properties":{"marker-symbol":"bar","marker-color":"34495e","name":"La Mafia se Sienta a la Mesa","address":"GARCIA MORATO, 11","city":"Logroño","zipCode":"26002"}},{"type":"Feature","id":"","geometry":{"type":"Point","coordinates":[-3.7010622,42.3430922]},"properties":{"marker-symbol":"bar","marker-color":"34495e","name":"La Mafia se Sienta a la Mesa","address":"LAIN CALVO, 50","city":"Burgos","zipCode":"09003"}},{"type":"Feature","id":"","geometry":{"type":"Point","coordinates":[-0.8842194,41.6498869]},"properties":{"marker-symbol":"bar","marker-color":"34495e","name":"La Mafia se Sienta a la Mesa","address":"MARQUES DE CASA JIMENEZ, 6","city":"Zaragoza","zipCode":"50004"}},{"type":"Feature","id":"","geometry":{"type":"Point","coordinates":[-0.8884739,41.6715253]},"properties":{"marker-symbol":"bar","marker-color":"34495e","name":"La Mafia se Sienta a la Mesa","address":"PABLO CASALS, 2 BAJO","city":"Zaragoza","zipCode":"50015"}},{"type":"Feature","id":"","geometry":{"type":"Point","coordinates":[-5.9955963,37.3936081]},"properties":{"marker-symbol":"bar","marker-color":"34495e","name":"La Mafia se Sienta a la Mesa","address":"Plaza Duque, 11","city":"Sevilla","zipCode":"41002"}},{"type":"Feature","id":"","geometry":{"type":"Point","coordinates":[-3.1277854,40.5620152]},"properties":{"marker-symbol":"bar","marker-color":"34495e","name":"La Mafia se Sienta a la Mesa","address":"Pso. DE SAN ROQUE, 15 LOCAL","city":"Guadalajara","zipCode":"19002"}},{"type":"Feature","id":"","geometry":{"type":"Point","coordinates":[-4.1088542,38.6893337]},"properties":{"marker-symbol":"bar","marker-color":"34495e","name":"La Mafia se Sienta a la Mesa","address":"PUERTO, 10","city":"Puertollano","zipCode":"13500"}},{"type":"Feature","id":"","geometry":{"type":"Point","coordinates":[-1.1046279,40.3427003]},"properties":{"marker-symbol":"bar","marker-color":"34495e","name":"La Mafia se Sienta a la Mesa","address":"RONDA AMBELES, 6","city":"Teruel","zipCode":"44001"}},{"type":"Feature","id":"","geometry":{"type":"Point","coordinates":[-3.9257817,38.9810633]},"properties":{"marker-symbol":"bar","marker-color":"34495e","name":"La Mafia se Sienta a la Mesa","address":"RONDA DE GRANADA, 7","city":"Ciudad Real","zipCode":"13004"}},{"type":"Feature","id":"","geometry":{"type":"Point","coordinates":[1.8112222,41.2347823]},"properties":{"marker-symbol":"bar","marker-color":"34495e","name":"La Mafia se Sienta a la Mesa","address":"SANT BARTOMEU, 8 LOCAL","city":"Sitges","zipCode":"08870"}},{"type":"Feature","id":"","geometry":{"type":"Point","coordinates":[-1.9627,42.3041176]},"properties":{"marker-symbol":"bar","marker-color":"34495e","name":"La Mafia se Sienta a la Mesa","address":"TEATRO, 19","city":"Calahorra","zipCode":"26500"}},{"type":"Feature","id":"","geometry":{"type":"Point","coordinates":[-1.6070173,42.0619644]},"properties":{"marker-symbol":"bar","marker-color":"34495e","name":"La Mafia se Sienta a la Mesa","address":"YANGUAS Y MIRANDA, 9 BAJO","city":"Tudela","zipCode":"31500"}},{"type":"Feature","id":"","geometry":{"type":"Point","coordinates":[-0.3713689,39.4501632]},"properties":{"marker-symbol":"bar","marker-color":"34495e","name":"Los Bestias","address":"AUSIAS MARCH, 70","city":"Valencia","zipCode":"46026"}},{"type":"Feature","id":"","geometry":{"type":"Point","coordinates":[-0.3312982,39.4568731]},"properties":{"marker-symbol":"bar","marker-color":"34495e","name":"Los Bestias","address":"Avda. MANUEL SOTO INGENIERO, 14","city":"Valencia","zipCode":"46023"}},{"type":"Feature","id":"","geometry":{"type":"Point","coordinates":[-0.1693031,39.0041597]},"properties":{"marker-symbol":"bar","marker-color":"34495e","name":"Los Bestias","address":"CAMI VELL DE VALENCIA, 48-50","city":"GANDIA PLAYA","zipCode":"46730"}},{"type":"Feature","id":"","geometry":{"type":"Point","coordinates":[-0.8917033,41.6467632]},"properties":{"marker-symbol":"bar","marker-color":"34495e","name":"Los Bestias","address":"PRINCESA, 3","city":"Zaragoza","zipCode":"50005"}}]}