{"type":"FeatureCollection","features":[{"type":"Feature","id":"","geometry":{"type":"Point","coordinates":[-5.9255424,37.3993301]},"properties":{"marker-symbol":"fast-food","name":"Iguanas Ranas","address":"Avda. de las Ciencias, 29","city":"Sevilla","zipCode":"41020"}},{"type":"Feature","id":"","geometry":{"type":"Point","coordinates":[-6.0462442,37.387551]},"properties":{"marker-symbol":"fast-food","name":"Iguanas Ranas","address":"Real, 1","city":"Castilleja de la Cuesta","zipCode":"41950"}},{"type":"Feature","id":"","geometry":{"type":"Point","coordinates":[-0.9629523,41.8163055]},"properties":{"marker-symbol":"fast-food","name":"Roscoking","address":"Avda. María Zambrano, 35 Local 2.05","city":"Zaragoza","zipCode":"50018"}},{"type":"Feature","id":"","geometry":{"type":"Point","coordinates":[-4.7342204,41.6397534]},"properties":{"marker-symbol":"fast-food","name":"Roscoking","address":"Avda. Puente Colgante, s/n (C.C. Ca","city":"Valladolid","zipCode":"47007"}},{"type":"Feature","id":"","geometry":{"type":"Point","coordinates":[-4.4215964,36.7195017]},"properties":{"marker-symbol":"fast-food","name":"Roscoking","address":"C.C. Larios","city":"Málaga","zipCode":"29002"}},{"type":"Feature","id":"","geometry":{"type":"Point","coordinates":[-4.5057333,42.0048141]},"properties":{"marker-symbol":"fast-food","name":"Roscoking","address":"C.C. LAS HUERTAS-CARREFOUR MADRID,","city":"Palencia","zipCode":"34004"}},{"type":"Feature","id":"","geometry":{"type":"Point","coordinates":[-3.9280011,40.3007381]},"properties":{"marker-symbol":"fast-food","name":"Roscoking","address":"C.C. MADRID XANADU PTO. NAVACERRADA","city":"Arroyomolinos","zipCode":"28939"}},{"type":"Feature","id":"","geometry":{"type":"Point","coordinates":[-4.7844029,41.6075956]},"properties":{"marker-symbol":"fast-food","name":"Roscoking","address":"Camino Viejo de Simancas, s/n (C.C.","city":"Valladolid","zipCode":"47008"}},{"type":"Feature","id":"","geometry":{"type":"Point","coordinates":[-4.0216886,39.8610709]},"properties":{"marker-symbol":"fast-food","name":"Roscoking","address":"VENANCIO GONZALEZ, 9","city":"Toledo","zipCode":"45001"}},{"type":"Feature","id":"","geometry":{"type":"Point","coordinates":[-3.6799707,40.3927509]},"properties":{"marker-symbol":"fast-food","name":"Churrería Siglo XIX","address":"Ariel, 7","city":"Madrid","zipCode":"28045"}},{"type":"Feature","id":"","geometry":{"type":"Point","coordinates":[-3.6403864,40.3871335]},"properties":{"marker-symbol":"fast-food","name":"Churrería Siglo XIX","address":"Avda. de la Albufera, 270","city":"Madrid","zipCode":"28018"}},{"type":"Feature","id":"","geometry":{"type":"Point","coordinates":[-3.6292265,40.4259409]},"properties":{"marker-symbol":"fast-food","name":"Churrería Siglo XIX","address":"Avda. Hermanos García Noblejas, 79","city":"Madrid","zipCode":"28018"}},{"type":"Feature","id":"","geometry":{"type":"Point","coordinates":[-3.577165,40.473729]},"properties":{"marker-symbol":"fast-food","name":"Churrería Siglo XIX","address":"Plaza Hermanos Falcó, 16","city":"Madrid","zipCode":"28042"}},{"type":"Feature","id":"","geometry":{"type":"Point","coordinates":[-3.628682,40.5506378]},"properties":{"marker-symbol":"fast-food","name":"Churrería Siglo XIX","address":"San Onofre, 25","city":"San Sebastián de los Reyes","zipCode":"28700"}},{"type":"Feature","id":"","geometry":{"type":"Point","coordinates":[-3.6977692,40.4322126]},"properties":{"marker-symbol":"fast-food","name":"Churrería Siglo XIX","address":"Santa Engracia, 41","city":"Madrid","zipCode":"28010"}},{"type":"Feature","id":"","geometry":{"type":"Point","coordinates":[-0.038487,39.9876445]},"properties":{"marker-symbol":"fast-food","name":"Muerte Por Chocolate","address":"Avda. REY DON JAIME, 34 - BAJO","city":"Castellón de la Plana/Castelló de l","zipCode":"12001"}},{"type":"Feature","id":"","geometry":{"type":"Point","coordinates":[-0.0367221,39.9862881]},"properties":{"marker-symbol":"fast-food","name":"Muerte Por Chocolate","address":"COLON","city":"Castellón de la Plana/Castelló de l","zipCode":"12001"}},{"type":"Feature","id":"","geometry":{"type":"Point","coordinates":[-6.2926569,36.5296879]},"properties":{"marker-symbol":"fast-food","name":"Muerte Por Chocolate","address":"P.C.BAHIA MAR, LOCAL 6.2","city":"Puerto de Santa María (El)","zipCode":"11500"}},{"type":"Feature","id":"","geometry":{"type":"Point","coordinates":[-2.6288523,36.7637909]},"properties":{"marker-symbol":"fast-food","name":"Muerte Por Chocolate","address":"P.C.GRAN PLAZA, PLANTA ALTA, L-9","city":"Roquetas de Mar","zipCode":"04740"}},{"type":"Feature","id":"","geometry":{"type":"Point","coordinates":[2.1904514999999947,41.4356745]},"properties":{"marker-symbol":"fast-food","name":"Nostrum","address":"Ajuntament, 9","city":"Barcelona","zipCode":"08030"}},{"type":"Feature","id":"","geometry":{"type":"Point","coordinates":[1.2513566,41.1203556]},"properties":{"marker-symbol":"fast-food","name":"Nostrum","address":"Antoni Rovira i Virgili, 25","city":"Tarragona","zipCode":"43002"}},{"type":"Feature","id":"","geometry":{"type":"Point","coordinates":[2.1542828999999983,41.3920962]},"properties":{"marker-symbol":"fast-food","name":"Nostrum","address":"Aribau, 139","city":"Barcelona","zipCode":"08036"}},{"type":"Feature","id":"","geometry":{"type":"Point","coordinates":[2.1699187000000393,41.387917]},"properties":{"marker-symbol":"fast-food","name":"Nostrum","address":"Av. Can Pallarès (Benzinera)","city":"Cerdanyola del Vallés","zipCode":"08290"}},{"type":"Feature","id":"","geometry":{"type":"Point","coordinates":[2.1917018000000326,41.40293]},"properties":{"marker-symbol":"fast-food","name":"Nostrum","address":"Avinguda Diagonal, 208. Centre Comercial Les Glòries (Local C220)","city":"Barcelona","zipCode":"08018"}},{"type":"Feature","id":"","geometry":{"type":"Point","coordinates":[2.1558237000000418,41.3945554]},"properties":{"marker-symbol":"fast-food","name":"Nostrum","address":"Balmes, 158","city":"Barcelona","zipCode":"08080"}},{"type":"Feature","id":"","geometry":{"type":"Point","coordinates":[2.134745299999963,41.4043048]},"properties":{"marker-symbol":"fast-food","name":"Nostrum","address":"Bisbe Sivilla, 31","city":"Barcelona","zipCode":"08022"}},{"type":"Feature","id":"","geometry":{"type":"Point","coordinates":[2.1714445999999725,41.3930299]},"properties":{"marker-symbol":"fast-food","name":"Nostrum","address":"Bruc, 60","city":"Barcelona","zipCode":"08010"}},{"type":"Feature","id":"","geometry":{"type":"Point","coordinates":[2.106272399999966,41.5481381]},"properties":{"marker-symbol":"fast-food","name":"Nostrum","address":"Calderón, 38-42","city":"Sabadell","zipCode":"08190"}},{"type":"Feature","id":"","geometry":{"type":"Point","coordinates":[2.4906528999999864,41.5667434]},"properties":{"marker-symbol":"fast-food","name":"Nostrum","address":"Camí de la Masia, 5","city":"Sant Andreu de Llavaneres","zipCode":"08392"}},{"type":"Feature","id":"","geometry":{"type":"Point","coordinates":[2.1489679000000024,41.3927175]},"properties":{"marker-symbol":"fast-food","name":"Nostrum","address":"Casanova, 193","city":"Barcelona","zipCode":"08036"}},{"type":"Feature","id":"","geometry":{"type":"Point","coordinates":[2.17476529999999,41.4092808]},"properties":{"marker-symbol":"fast-food","name":"Nostrum","address":"Castillejos, 322","city":"Barcelona","zipCode":"08025"}},{"type":"Feature","id":"","geometry":{"type":"Point","coordinates":[2.1176503000000366,41.3758394]},"properties":{"marker-symbol":"fast-food","name":"Nostrum","address":"Ctra de Collblanc , 44","city":"Hospitalet de Llobregat","zipCode":"08908"}},{"type":"Feature","id":"","geometry":{"type":"Point","coordinates":[2.167941599999949,41.3909927]},"properties":{"marker-symbol":"fast-food","name":"Nostrum","address":"Diputació, 262","city":"Barcelona","zipCode":"08007"}},{"type":"Feature","id":"","geometry":{"type":"Point","coordinates":[2.176347299999975,41.3796062]},"properties":{"marker-symbol":"fast-food","name":"Nostrum","address":"Escudellers, 27","city":"Barcelona","zipCode":"08080"}},{"type":"Feature","id":"","geometry":{"type":"Point","coordinates":[2.131576099999961,41.3875779]},"properties":{"marker-symbol":"fast-food","name":"Nostrum","address":"Europa, 30","city":"Barcelona","zipCode":"08014"}},{"type":"Feature","id":"","geometry":{"type":"Point","coordinates":[2.151794500000051,41.4040293]},"properties":{"marker-symbol":"fast-food","name":"Nostrum","address":"Gran de Gràcia, 195","city":"Barcelona","zipCode":"08012"}},{"type":"Feature","id":"","geometry":{"type":"Point","coordinates":[2.8201401,41.9817257]},"properties":{"marker-symbol":"fast-food","name":"Nostrum","address":"Gran Via de Jaume I, 41","city":"Girona","zipCode":"17001"}},{"type":"Feature","id":"","geometry":{"type":"Point","coordinates":[2.144180600000027,41.3923849]},"properties":{"marker-symbol":"fast-food","name":"Nostrum","address":"Josep Tarradellas, 161","city":"Barcelona","zipCode":"08015"}},{"type":"Feature","id":"","geometry":{"type":"Point","coordinates":[-0.37403070000004845,39.473522]},"properties":{"marker-symbol":"fast-food","name":"Nostrum","address":"La Paz, 7","city":"Valencia","zipCode":"46003"}},{"type":"Feature","id":"","geometry":{"type":"Point","coordinates":[2.1699187000000393,41.387917]},"properties":{"marker-symbol":"fast-food","name":"Nostrum","address":"Llull, 198 Local 2","city":"Barcelona","zipCode":"08055"}},{"type":"Feature","id":"","geometry":{"type":"Point","coordinates":[2.1383396999999604,41.4025321]},"properties":{"marker-symbol":"fast-food","name":"Nostrum","address":"Muntaner, 476","city":"Barcelona","zipCode":"08021"}},{"type":"Feature","id":"","geometry":{"type":"Point","coordinates":[2.143767099999991,41.4041809]},"properties":{"marker-symbol":"fast-food","name":"Nostrum","address":"Pàdua, 96","city":"Barcelona","zipCode":"08006"}},{"type":"Feature","id":"","geometry":{"type":"Point","coordinates":[2.083625600000005,41.4782517]},"properties":{"marker-symbol":"fast-food","name":"Nostrum","address":"Passeig Francesc Macià, 74 A","city":"Sant Cugat del Vallés","zipCode":"08173"}},{"type":"Feature","id":"","geometry":{"type":"Point","coordinates":[2.1658665999999585,41.3935344]},"properties":{"marker-symbol":"fast-food","name":"Nostrum","address":"Pau Claris, 137","city":"Barcelona","zipCode":"08080"}},{"type":"Feature","id":"","geometry":{"type":"Point","coordinates":[2.0745213999999805,41.534227]},"properties":{"marker-symbol":"fast-food","name":"Nostrum","address":"Plaça Lluís Millet, 2","city":"Sant Cugat del Vallés","zipCode":"08190"}},{"type":"Feature","id":"","geometry":{"type":"Point","coordinates":[2.1580787000000328,41.3923179]},"properties":{"marker-symbol":"fast-food","name":"Nostrum","address":"Provença, 209","city":"Barcelona","zipCode":"08002"}},{"type":"Feature","id":"","geometry":{"type":"Point","coordinates":[2.166651399999978,41.3888751]},"properties":{"marker-symbol":"fast-food","name":"Nostrum","address":"Rambla Catalunya, 20","city":"Barcelona","zipCode":"08007"}},{"type":"Feature","id":"","geometry":{"type":"Point","coordinates":[2.0077492000000348,41.5604538]},"properties":{"marker-symbol":"fast-food","name":"Nostrum","address":"Rambla Egara, 130","city":"Terrassa","zipCode":"08211"}},{"type":"Feature","id":"","geometry":{"type":"Point","coordinates":[2.11109179999994,41.5423682]},"properties":{"marker-symbol":"fast-food","name":"Nostrum","address":"Rambla, 131","city":"Sabadell","zipCode":"08201"}},{"type":"Feature","id":"","geometry":{"type":"Point","coordinates":[2.1621562999999924,41.3984388]},"properties":{"marker-symbol":"fast-food","name":"Nostrum","address":"Roger de Llúria, 134","city":"Barcelona","zipCode":"08037"}},{"type":"Feature","id":"","geometry":{"type":"Point","coordinates":[2.09961880000003,41.5504879]},"properties":{"marker-symbol":"fast-food","name":"Nostrum","address":"Ronda Zamenhof, 112","city":"Sabadell","zipCode":"08201"}},{"type":"Feature","id":"","geometry":{"type":"Point","coordinates":[2.164367900000002,41.3852017]},"properties":{"marker-symbol":"fast-food","name":"Nostrum","address":"Tallers, 81","city":"Barcelona","zipCode":"08080"}},{"type":"Feature","id":"","geometry":{"type":"Point","coordinates":[2.15947929999993,41.3968668]},"properties":{"marker-symbol":"fast-food","name":"Nostrum","address":"Travessera de Gràcia, 101","city":"Barcelona","zipCode":"08080"}},{"type":"Feature","id":"","geometry":{"type":"Point","coordinates":[2.1528304999999364,41.3953181]},"properties":{"marker-symbol":"fast-food","name":"Nostrum","address":"Tuset, 1","city":"Barcelona","zipCode":"08006"}},{"type":"Feature","id":"","geometry":{"type":"Point","coordinates":[2.135724600000003,41.381391]},"properties":{"marker-symbol":"fast-food","name":"Nostrum","address":"Vallespir, 97","city":"Barcelona","zipCode":"08014"}},{"type":"Feature","id":"","geometry":{"type":"Point","coordinates":[2.1770974999999453,41.3851499]},"properties":{"marker-symbol":"fast-food","name":"Nostrum","address":"Via Laietana, 33","city":"Barcelona","zipCode":"08003"}},{"type":"Feature","id":"","geometry":{"type":"Point","coordinates":[-16.3641202,28.3659403]},"properties":{"marker-symbol":"fast-food","name":"Crepería La Boheme","address":"Avda. Marítima, 35","city":"Candelaria","zipCode":"38002"}},{"type":"Feature","id":"","geometry":{"type":"Point","coordinates":[-16.2484831,28.4688516]},"properties":{"marker-symbol":"fast-food","name":"Crepería La Boheme","address":"Emilio Calzadilla, 8","city":"Santa Cruz de Tenerife","zipCode":"38002"}},{"type":"Feature","id":"","geometry":{"type":"Point","coordinates":[-16.5375678,28.0441366]},"properties":{"marker-symbol":"fast-food","name":"Crepería La Boheme","address":"Paseo El Picacho, 7","city":"Granadilla de Abona","zipCode":"38002"}},{"type":"Feature","id":"","geometry":{"type":"Point","coordinates":[-16.3203955,28.4900433]},"properties":{"marker-symbol":"fast-food","name":"Crepería La Boheme","address":"Plaza Doctor Olivera, 15","city":"San Cristóbal de La Laguna","zipCode":"38002"}},{"type":"Feature","id":"","geometry":{"type":"Point","coordinates":[-4.4292336,36.7183465]},"properties":{"marker-symbol":"fast-food","name":"Dunkin' Coffee","address":"Armengual de la Mota, 10","city":"Málaga","zipCode":"29007"}},{"type":"Feature","id":"","geometry":{"type":"Point","coordinates":[-3.699036,40.41243]},"properties":{"marker-symbol":"fast-food","name":"Dunkin' Coffee","address":"Atocha, 67","city":"Madrid","zipCode":"28010"}},{"type":"Feature","id":"","geometry":{"type":"Point","coordinates":[-4.104212,40.5761031]},"properties":{"marker-symbol":"fast-food","name":"Dunkin' Coffee","address":"C.C. Alegra, Salvador Madariaga, s/","city":"San Sebastián de los Reyes","zipCode":"28700"}},{"type":"Feature","id":"","geometry":{"type":"Point","coordinates":[2.1247233,41.5159611]},"properties":{"marker-symbol":"fast-food","name":"Dunkin' Coffee","address":"C.C. BARICENTRO.B107-CTRA.NAC.150.K","city":"Barberà del Vallès","zipCode":"08210"}},{"type":"Feature","id":"","geometry":{"type":"Point","coordinates":[2.1602596,41.3965575]},"properties":{"marker-symbol":"fast-food","name":"Dunkin' Coffee","address":"C.C. DIAGONAL MAR-AV.DIAGONAL, 3","city":"Barcelona","zipCode":"08019"}},{"type":"Feature","id":"","geometry":{"type":"Point","coordinates":[-3.768906,40.3037887]},"properties":{"marker-symbol":"fast-food","name":"Dunkin' Coffee","address":"C.C. El Corte Inglés-Calle Primaver","city":"Leganés","zipCode":"28914"}},{"type":"Feature","id":"","geometry":{"type":"Point","coordinates":[2.1699187,41.387917]},"properties":{"marker-symbol":"fast-food","name":"Dunkin' Coffee","address":"C.C. LA FARGA-TIENDA P10-PISO 1","city":"Hospitalet de Llobregat (L')","zipCode":"08901"}},{"type":"Feature","id":"","geometry":{"type":"Point","coordinates":[2.196618,41.4378689]},"properties":{"marker-symbol":"fast-food","name":"Dunkin' Coffee","address":"C.C. LA MAQUINISTA, LOCAL C-49A","city":"Barcelona","zipCode":"08030"}},{"type":"Feature","id":"","geometry":{"type":"Point","coordinates":[-3.6563115,40.5190964]},"properties":{"marker-symbol":"fast-food","name":"Dunkin' Coffee","address":"C.C. LA MORALEJA,AV.EUROPA, 13-15","city":"Alcobendas","zipCode":"28100"}},{"type":"Feature","id":"","geometry":{"type":"Point","coordinates":[2.1877001,41.4033976]},"properties":{"marker-symbol":"fast-food","name":"Dunkin' Coffee","address":"C.C. LES GLORIES","city":"Barcelona","zipCode":"08018"}},{"type":"Feature","id":"","geometry":{"type":"Point","coordinates":[2.6234748,39.5542967]},"properties":{"marker-symbol":"fast-food","name":"Dunkin' Coffee","address":"C.C. PORTO PI","city":"Palma","zipCode":"07000"}},{"type":"Feature","id":"","geometry":{"type":"Point","coordinates":[2.0839717,41.4742239]},"properties":{"marker-symbol":"fast-food","name":"Dunkin' Coffee","address":"C.C. SANT CUGAT-VIA AUGUSTA 2-14","city":"Sant Cugat del Vallès","zipCode":"08174"}},{"type":"Feature","id":"","geometry":{"type":"Point","coordinates":[-3.7016317,40.4091106]},"properties":{"marker-symbol":"fast-food","name":"Dunkin' Coffee","address":"de la Victoria, esq. Carrera San Je","city":"Madrid","zipCode":"28012"}},{"type":"Feature","id":"","geometry":{"type":"Point","coordinates":[-3.6002547,37.1771482]},"properties":{"marker-symbol":"fast-food","name":"Dunkin' Coffee","address":"Escuelas, 8 (Plaza de la Universida","city":"Granada","zipCode":"18001"}},{"type":"Feature","id":"","geometry":{"type":"Point","coordinates":[2.187047,41.4096599]},"properties":{"marker-symbol":"fast-food","name":"Dunkin' Coffee","address":"EST.METRO CLOT,AVDA. MERIDIANA, 140","city":"Barcelona","zipCode":"08026"}},{"type":"Feature","id":"","geometry":{"type":"Point","coordinates":[2.1720423,41.4083076]},"properties":{"marker-symbol":"fast-food","name":"Dunkin' Coffee","address":"ESTAC.METRO PLAZA SANTS L2/L5","city":"Barcelona","zipCode":"08025"}},{"type":"Feature","id":"","geometry":{"type":"Point","coordinates":[2.1830997,41.4118532]},"properties":{"marker-symbol":"fast-food","name":"Dunkin' Coffee","address":"ESTAC.METRO SAGRADA FAMILIA","city":"Barcelona","zipCode":"08026"}},{"type":"Feature","id":"","geometry":{"type":"Point","coordinates":[2.1699187,41.387917]},"properties":{"marker-symbol":"fast-food","name":"Dunkin' Coffee","address":"ESTACION METRO CATALUÑA,ENLACE 3-1","city":"Barcelona","zipCode":"08000"}},{"type":"Feature","id":"","geometry":{"type":"Point","coordinates":[2.1699187,41.387917]},"properties":{"marker-symbol":"fast-food","name":"Dunkin' Coffee","address":"ESTACION METRO UNIVERSIDAD.ENLACE 1","city":"Barcelona","zipCode":"08000"}},{"type":"Feature","id":"","geometry":{"type":"Point","coordinates":[-3.692336,40.4089574]},"properties":{"marker-symbol":"fast-food","name":"Dunkin' Coffee","address":"GLORIETA EMPERADOR CARLOS V, 10","city":"Madrid","zipCode":"28012"}},{"type":"Feature","id":"","geometry":{"type":"Point","coordinates":[-3.7054558,40.4201107]},"properties":{"marker-symbol":"fast-food","name":"Dunkin' Coffee","address":"GRAN VIA, 39","city":"Madrid","zipCode":"28013"}},{"type":"Feature","id":"","geometry":{"type":"Point","coordinates":[-4.4190076,36.7220901]},"properties":{"marker-symbol":"fast-food","name":"Dunkin' Coffee","address":"Granada, 46","city":"Málaga","zipCode":"29015"}},{"type":"Feature","id":"","geometry":{"type":"Point","coordinates":[-4.4330499,36.7214525]},"properties":{"marker-symbol":"fast-food","name":"Dunkin' Coffee","address":"Martinez Maldonado, 15","city":"Málaga","zipCode":"29007"}},{"type":"Feature","id":"","geometry":{"type":"Point","coordinates":[2.1278398,41.3790881]},"properties":{"marker-symbol":"fast-food","name":"Dunkin' Coffee","address":"METRO BARCELONA, EST. PALACIO REAL","city":"Barcelona","zipCode":"08028"}},{"type":"Feature","id":"","geometry":{"type":"Point","coordinates":[2.6502196,39.575102]},"properties":{"marker-symbol":"fast-food","name":"Dunkin' Coffee","address":"OLMOS, 24","city":"Palma","zipCode":"07000"}},{"type":"Feature","id":"","geometry":{"type":"Point","coordinates":[2.2268821,41.4550086]},"properties":{"marker-symbol":"fast-food","name":"Dunkin' Coffee","address":"OLOF PALME, 28","city":"Badalona","zipCode":"08917"}},{"type":"Feature","id":"","geometry":{"type":"Point","coordinates":[-3.7257386,40.4299652]},"properties":{"marker-symbol":"fast-food","name":"Dunkin' Coffee","address":"PRINCESA, 98, INTERCAMBIADOR MONCLO","city":"Madrid","zipCode":"28008"}},{"type":"Feature","id":"","geometry":{"type":"Point","coordinates":[-3.6884821,40.46739]},"properties":{"marker-symbol":"fast-food","name":"Dunkin' Coffee","address":"Pso. CASTELLANA, 218","city":"Madrid","zipCode":"28046"}},{"type":"Feature","id":"","geometry":{"type":"Point","coordinates":[2.1697149,41.3887145]},"properties":{"marker-symbol":"fast-food","name":"Dunkin' Coffee","address":"Pso. DE GRACIA, 6","city":"Barcelona","zipCode":"08007"}},{"type":"Feature","id":"","geometry":{"type":"Point","coordinates":[-3.7050692,40.4043787]},"properties":{"marker-symbol":"fast-food","name":"Dunkin' Coffee","address":"Pso. de las Acacias, 8","city":"Madrid","zipCode":"28005"}},{"type":"Feature","id":"","geometry":{"type":"Point","coordinates":[2.6499264,39.569712]},"properties":{"marker-symbol":"fast-food","name":"Dunkin' Coffee","address":"PZA. CORT","city":"Palma","zipCode":"07000"}},{"type":"Feature","id":"","geometry":{"type":"Point","coordinates":[2.1683571,41.3795863]},"properties":{"marker-symbol":"fast-food","name":"Dunkin' Coffee","address":"RBLA.ST JOSEP, 89","city":"Barcelona","zipCode":"08001"}},{"type":"Feature","id":"","geometry":{"type":"Point","coordinates":[-3.6053334,37.1705356]},"properties":{"marker-symbol":"fast-food","name":"Dunkin' Coffee","address":"Recogidas, 54","city":"Granada","zipCode":"18005"}},{"type":"Feature","id":"","geometry":{"type":"Point","coordinates":[-3.6765512,40.4584264]},"properties":{"marker-symbol":"fast-food","name":"Dunkin' Coffee","address":"Republica Dominicana, 7","city":"Madrid","zipCode":"28016"}},{"type":"Feature","id":"","geometry":{"type":"Point","coordinates":[2.6520054,39.5719705]},"properties":{"marker-symbol":"fast-food","name":"Dunkin' Coffee","address":"SAN MIGUEL, 8","city":"Palma","zipCode":"07002"}},{"type":"Feature","id":"","geometry":{"type":"Point","coordinates":[-3.7003632,40.4765501]},"properties":{"marker-symbol":"fast-food","name":"Canel Rolls","address":"Bravo Murillo, 122 (Mercado Maravil","city":"Madrid","zipCode":"28029"}},{"type":"Feature","id":"","geometry":{"type":"Point","coordinates":[-3.0202518,43.3206637]},"properties":{"marker-symbol":"fast-food","name":"Canel Rolls","address":"C.C. BALLONTI, AVDA. BALLONTI, 1","city":"Portugalete","zipCode":"48920"}},{"type":"Feature","id":"","geometry":{"type":"Point","coordinates":[-0.487242,39.471108]},"properties":{"marker-symbol":"fast-food","name":"Canel Rolls","address":"C.C. BONAIRE","city":"Aldaia","zipCode":"46960"}},{"type":"Feature","id":"","geometry":{"type":"Point","coordinates":[-8.7293572,42.2212247]},"properties":{"marker-symbol":"fast-food","name":"Canel Rolls","address":"C.C. GRAN VIA","city":"Vigo","zipCode":"36210"}},{"type":"Feature","id":"","geometry":{"type":"Point","coordinates":[-3.7003632,40.4765501]},"properties":{"marker-symbol":"fast-food","name":"Canel Rolls","address":"C.C. Vaguada","city":"Leganés","zipCode":"28029"}}]}